{"type": "FeatureCollection", "features": [{"type": "Feature", "geometry": {"type": "Point", "coordinates": [121.54781, 25.031851]}, "properties": {"type": "bike", "date": 1040101, "time": "16~18", "address": "臺北市大安區住安里四維路124巷1~30號"}}, {"type": "Feature", "geometry": {"type": "Point", "coordinates": [121.546578, 25.037626]}, "properties": {"type": "bike", "date": 1040104, "time": "08~10", "address": "臺北市大安區敦煌里仁愛路4段266巷1~30號"}}, {"type": "Feature", "geometry": {"type": "Point", "coordinates": [121.507731, 25.024668]}, "properties": {"type": "bike", "date": 1040106, "time": "14~16", "address": "臺北市萬華區國興路1~30號"}}, {"type": "Feature", "geometry": {"type": "Point", "coordinates": [121.501335, 25.126249]}, "properties": {"type": "bike", "date": 1040108, "time": "08~10", "address": "臺北市北投區清江里三合街2段481~510號"}}, {"type": "Feature", "geometry": {"type": "Point", "coordinates": [121.557559, 25.056503]}, "properties": {"type": "bike", "date": 1040108, "time": "16~18", "address": "臺北市松山區延壽街391~420號"}}, {"type": "Feature", "geometry": {"type": "Point", "coordinates": [121.61423, 25.055327]}, "properties": {"type": "bike", "date": 1040109, "time": "06~08", "address": "臺北市南港區三重里南港路1段(南港展覽館5號"}}, {"type": "Feature", "geometry": {"type": "Point", "coordinates": [121.498558, 25.131975]}, "properties": {"type": "bike", "date": 1040109, "time": "14~16", "address": "臺北市北投區大同里光明路1~30號"}}, {"type": "Feature", "geometry": {"type": "Point", "coordinates": [121.607486, 25.072735]}, "properties": {"type": "bike", "date": 1040109, "time": "14~16", "address": "臺北市內湖區金湖里康寧路3段31~60號"}}, {"type": "Feature", "geometry": {"type": "Point", "coordinates": [121.607486, 25.072735]}, "properties": {"type": "bike", "date": 1040110, "time": "04~06", "address": "臺北市內湖區康寧路3段31~60號"}}, {"type": "Feature", "geometry": {"type": "Point", "coordinates": [121.563264, 25.05841]}, "properties": {"type": "bike", "date": 1040110, "time": "12~14", "address": "臺北市松山區三民路121~150號"}}, {"type": "Feature", "geometry": {"type": "Point", "coordinates": [121.500818, 25.042773]}, "properties": {"type": "bike", "date": 1040110, "time": "16~18", "address": "臺北市萬華區西昌街29巷1~30號"}}, {"type": "Feature", "geometry": {"type": "Point", "coordinates": [121.602366, 25.054897]}, "properties": {"type": "bike", "date": 1040111, "time": "06~08", "address": "臺北市南港區東明里東明街61~90號"}}, {"type": "Feature", "geometry": {"type": "Point", "coordinates": [121.602366, 25.054897]}, "properties": {"type": "bike", "date": 1040111, "time": "06~08", "address": "臺北市南港區東明里東明街61~90號"}}, {"type": "Feature", "geometry": {"type": "Point", "coordinates": [121.602366, 25.054897]}, "properties": {"type": "bike", "date": 1040111, "time": "06~08", "address": "臺北市南港區東明里東明街61~90號"}}, {"type": "Feature", "geometry": {"type": "Point", "coordinates": [121.602366, 25.054897]}, "properties": {"type": "bike", "date": 1040111, "time": "06~08", "address": "臺北市南港區東明里東明街61~90號"}}, {"type": "Feature", "geometry": {"type": "Point", "coordinates": [121.602366, 25.054897]}, "properties": {"type": "bike", "date": 1040111, "time": "06~08", "address": "臺北市南港區東明里東明街61~90號"}}, {"type": "Feature", "geometry": {"type": "Point", "coordinates": [121.499359, 25.022491]}, "properties": {"type": "bike", "date": 1040111, "time": "08~10", "address": "臺北市萬華區萬大路387巷1~30號"}}, {"type": "Feature", "geometry": {"type": "Point", "coordinates": [121.498558, 25.131975]}, "properties": {"type": "bike", "date": 1040111, "time": "14~16", "address": "臺北市北投區大同里光明路1~30號"}}, {"type": "Feature", "geometry": {"type": "Point", "coordinates": [121.525293, 25.044563]}, "properties": {"type": "bike", "date": 1040113, "time": "10~12", "address": "臺北市中正區忠孝東路1段31~60號"}}, {"type": "Feature", "geometry": {"type": "Point", "coordinates": [121.585065, 25.037869]}, "properties": {"type": "bike", "date": 1040115, "time": "06~08", "address": "臺北市信義區中行里福德街221巷4弄1~30號"}}, {"type": "Feature", "geometry": {"type": "Point", "coordinates": [121.566148, 25.062945]}, "properties": {"type": "bike", "date": 1040116, "time": "06~08", "address": "臺北市松山區撫遠街361~390號"}}, {"type": "Feature", "geometry": {"type": "Point", "coordinates": [121.544213, 25.038271]}, "properties": {"type": "bike", "date": 1040117, "time": "16~18", "address": "臺北市大安區仁慈里仁愛路4段1~30號"}}, {"type": "Feature", "geometry": {"type": "Point", "coordinates": [121.496594, 25.0304]}, "properties": {"type": "bike", "date": 1040118, "time": "08~10", "address": "臺北市萬華區西園路2段91~120號"}}, {"type": "Feature", "geometry": {"type": "Point", "coordinates": [121.581462, 25.043813]}, "properties": {"type": "bike", "date": 1040119, "time": "08~10", "address": "臺北市信義區大道里忠孝東路5段781~810號"}}, {"type": "Feature", "geometry": {"type": "Point", "coordinates": [121.563109, 25.036083]}, "properties": {"type": "bike", "date": 1040120, "time": "10~12", "address": "臺北市信義區西村里松壽路1~30號"}}, {"type": "Feature", "geometry": {"type": "Point", "coordinates": [121.58887, 25.069506]}, "properties": {"type": "bike", "date": 1040121, "time": "10~12", "address": "臺北市內湖區南湖里東湖捷運站"}}, {"type": "Feature", "geometry": {"type": "Point", "coordinates": [121.575501, 25.080209]}, "properties": {"type": "bike", "date": 1040121, "time": "12~14", "address": "臺北市內湖區港墘里內湖路1段661~690號"}}, {"type": "Feature", "geometry": {"type": "Point", "coordinates": [121.467614, 25.126696]}, "properties": {"type": "bike", "date": 1040122, "time": "00~02", "address": "臺北市北投區一德里中央北路4段577巷27弄1~30號"}}, {"type": "Feature", "geometry": {"type": "Point", "coordinates": [121.606081, 25.054015]}, "properties": {"type": "bike", "date": 1040123, "time": "18~20", "address": "臺北市南港區東明里南港路2段1~30號"}}, {"type": "Feature", "geometry": {"type": "Point", "coordinates": [121.606178, 25.054333]}, "properties": {"type": "bike", "date": 1040123, "time": "18~20", "address": "臺北市南港區東明里南港路2段(與興華路口萊爾富超商前)"}}, {"type": "Feature", "geometry": {"type": "Point", "coordinates": [121.514911, 25.110781]}, "properties": {"type": "bike", "date": 1040123, "time": "20~22", "address": "臺北市北投區石牌里自強街91~120號"}}, {"type": "Feature", "geometry": {"type": "Point", "coordinates": [121.506443, 25.120858]}, "properties": {"type": "bike", "date": 1040123, "time": "20~22", "address": "臺北市北投區東華里東華街2段301~330號"}}, {"type": "Feature", "geometry": {"type": "Point", "coordinates": [121.564, 25.054677]}, "properties": {"type": "bike", "date": 1040123, "time": "22~24", "address": "臺北市松山區三民路62巷1~30號"}}, {"type": "Feature", "geometry": {"type": "Point", "coordinates": [121.51668, 25.048876]}, "properties": {"type": "bike", "date": 1040124, "time": "22~24", "address": "臺北市中正區黎明里市民大道1段(台北捷運M1出口處)"}}, {"type": "Feature", "geometry": {"type": "Point", "coordinates": [121.51974, 25.033557]}, "properties": {"type": "bike", "date": 1040125, "time": "10~12", "address": "臺北市中正區東門里愛國東路(上(靠國家戲劇院人行道自行車停車格))"}}, {"type": "Feature", "geometry": {"type": "Point", "coordinates": [121.586868, 25.044511]}, "properties": {"type": "bike", "date": 1040125, "time": "12~14", "address": "臺北市南港區鴻福里成福路31~60號"}}, {"type": "Feature", "geometry": {"type": "Point", "coordinates": [121.494301, 25.027145]}, "properties": {"type": "bike", "date": 1040125, "time": "14~16", "address": "臺北市萬華區西園路2段211~240號"}}, {"type": "Feature", "geometry": {"type": "Point", "coordinates": [121.581949, 25.044138]}, "properties": {"type": "bike", "date": 1040126, "time": "10~12", "address": "臺北市信義區忠孝東路5段(市府捷運站4號"}}, {"type": "Feature", "geometry": {"type": "Point", "coordinates": [121.494859, 25.025229]}, "properties": {"type": "bike", "date": 1040126, "time": "14~16", "address": "臺北市萬華區寶興街121~150號"}}, {"type": "Feature", "geometry": {"type": "Point", "coordinates": [121.485429, 25.137839]}, "properties": {"type": "bike", "date": 1040127, "time": "16~18", "address": "臺北市北投區桃源里中央北路3段53巷1~30號"}}, {"type": "Feature", "geometry": {"type": "Point", "coordinates": [121.549226, 25.000769]}, "properties": {"type": "bike", "date": 1040128, "time": "04~06", "address": "臺北市文山區興邦里興隆路2段181~210號"}}, {"type": "Feature", "geometry": {"type": "Point", "coordinates": [121.534563, 25.026456]}, "properties": {"type": "bike", "date": 1040128, "time": "14~16", "address": "臺北市大安區信義路敦化南路口"}}, {"type": "Feature", "geometry": {"type": "Point", "coordinates": [121.551708, 25.037443]}, "properties": {"type": "bike", "date": 1040129, "time": "16~18", "address": "臺北市大安區敦煌里安和路1段61~90號"}}, {"type": "Feature", "geometry": {"type": "Point", "coordinates": [121.493581, 25.026579]}, "properties": {"type": "bike", "date": 1040130, "time": "10~12", "address": "臺北市萬華區西園路2段241~270號"}}, {"type": "Feature", "geometry": {"type": "Point", "coordinates": [121.466626, 25.124156]}, "properties": {"type": "bike", "date": 1040130, "time": "18~20", "address": "臺北市北投區一德里大度路3段296巷31~60號"}}, {"type": "Feature", "geometry": {"type": "Point", "coordinates": [121.533439, 25.063628]}, "properties": {"type": "bike", "date": 1040131, "time": "16~18", "address": "臺北市中山區松江路361~390號"}}, {"type": "Feature", "geometry": {"type": "Point", "coordinates": [121.544567, 25.052697]}, "properties": {"type": "bike", "date": 1040201, "time": "18~20", "address": "臺北市松山區慶城街1~30號"}}, {"type": "Feature", "geometry": {"type": "Point", "coordinates": [121.514942, 25.05432]}, "properties": {"type": "bike", "date": 1040204, "time": "20~22", "address": "臺北市大同區星明里寧夏路1~30號"}}, {"type": "Feature", "geometry": {"type": "Point", "coordinates": [121.4693, 25.120729]}, "properties": {"type": "bike", "date": 1040205, "time": "06~08", "address": "臺北市北投區關渡里關渡路91~120號"}}, {"type": "Feature", "geometry": {"type": "Point", "coordinates": [121.514005, 25.111435]}, "properties": {"type": "bike", "date": 1040205, "time": "18~20", "address": "臺北市北投區榮光里致遠一路2段31~60號"}}, {"type": "Feature", "geometry": {"type": "Point", "coordinates": [121.575963, 25.043393]}, "properties": {"type": "bike", "date": 1040205, "time": "20~22", "address": "臺北市信義區長春里虎林街82巷31~60號"}}, {"type": "Feature", "geometry": {"type": "Point", "coordinates": [121.525533, 25.08593]}, "properties": {"type": "bike", "date": 1040207, "time": "12~14", "address": "臺北市士林區中山北路5段61~90號"}}, {"type": "Feature", "geometry": {"type": "Point", "coordinates": [121.560849, 25.033179]}, "properties": {"type": "bike", "date": 1040210, "time": "12~14", "address": "臺北市信義區安康里信義路5段(象山捷運站1號"}}, {"type": "Feature", "geometry": {"type": "Point", "coordinates": [121.538447, 24.994527]}, "properties": {"type": "bike", "date": 1040212, "time": "08~10", "address": "臺北市文山區景慶里景福街223巷(口)"}}, {"type": "Feature", "geometry": {"type": "Point", "coordinates": [121.501124, 25.13952]}, "properties": {"type": "bike", "date": 1040215, "time": "10~12", "address": "臺北市北投區開明里中和街241~270號"}}, {"type": "Feature", "geometry": {"type": "Point", "coordinates": [121.557802, 25.051889]}, "properties": {"type": "bike", "date": 1040215, "time": "12~14", "address": "臺北市松山區南京東路5段211~240號"}}, {"type": "Feature", "geometry": {"type": "Point", "coordinates": [121.552893, 25.036845]}, "properties": {"type": "bike", "date": 1040216, "time": "18~20", "address": "臺北市大安區敦煌里仁愛路4段266巷"}}, {"type": "Feature", "geometry": {"type": "Point", "coordinates": [121.559774, 24.994674]}, "properties": {"type": "bike", "date": 1040217, "time": "02~04", "address": "臺北市文山區興得里興隆路3段211~240號"}}, {"type": "Feature", "geometry": {"type": "Point", "coordinates": [121.526261, 25.022484]}, "properties": {"type": "bike", "date": 1040217, "time": "10~12", "address": "臺北市大安區古莊里羅斯福路3段91~120號"}}, {"type": "Feature", "geometry": {"type": "Point", "coordinates": [121.580723, 25.072129]}, "properties": {"type": "bike", "date": 1040218, "time": "08~10", "address": "臺北市內湖區瑞光里瑞光路112巷58弄"}}, {"type": "Feature", "geometry": {"type": "Point", "coordinates": [121.499891, 25.034887]}, "properties": {"type": "bike", "date": 1040218, "time": "22~24", "address": "臺北市萬華區西門站"}}, {"type": "Feature", "geometry": {"type": "Point", "coordinates": [121.574685, 25.038099]}, "properties": {"type": "bike", "date": 1040219, "time": "10~12", "address": "臺北市信義區安康里虎林街164巷58弄1~30號"}}, {"type": "Feature", "geometry": {"type": "Point", "coordinates": [121.514181, 25.114913]}, "properties": {"type": "bike", "date": 1040220, "time": "20~22", "address": "臺北市北投區榮光里石牌路1段181~210號"}}, {"type": "Feature", "geometry": {"type": "Point", "coordinates": [121.533628, 25.064251]}, "properties": {"type": "bike", "date": 1040222, "time": "14~16", "address": "臺北市中山區圓山捷運站2號"}}, {"type": "Feature", "geometry": {"type": "Point", "coordinates": [121.528202, 25.018229]}, "properties": {"type": "bike", "date": 1040222, "time": "14~16", "address": "臺北市大安區辛亥路1段61~90號"}}, {"type": "Feature", "geometry": {"type": "Point", "coordinates": [121.555626, 25.021745]}, "properties": {"type": "bike", "date": 1040225, "time": "04~06", "address": "臺北市大安區黎孝里和平東路3段301~330號"}}, {"type": "Feature", "geometry": {"type": "Point", "coordinates": [121.558937, 25.031524]}, "properties": {"type": "bike", "date": 1040225, "time": "10~12", "address": "臺北市信義區基隆路2段31~60號"}}, {"type": "Feature", "geometry": {"type": "Point", "coordinates": [121.563081, 24.981038]}, "properties": {"type": "bike", "date": 1040226, "time": "00~02", "address": "臺北市文山區樟腳里木新路3段95巷31~60號"}}, {"type": "Feature", "geometry": {"type": "Point", "coordinates": [121.61583, 25.053311]}, "properties": {"type": "bike", "date": 1040228, "time": "18~20", "address": "臺北市南港區新富里忠孝東路7段631~660號"}}, {"type": "Feature", "geometry": {"type": "Point", "coordinates": [121.557726, 25.036236]}, "properties": {"type": "bike", "date": 1040301, "time": "00~02", "address": "臺北市大安區光信里5鄰光復南路421~450號"}}, {"type": "Feature", "geometry": {"type": "Point", "coordinates": [121.541568, 24.996197]}, "properties": {"type": "bike", "date": 1040306, "time": "10~12", "address": "臺北市文山區景華里三福街1~30號"}}, {"type": "Feature", "geometry": {"type": "Point", "coordinates": [121.538895, 25.060336]}, "properties": {"type": "bike", "date": 1040306, "time": "14~16", "address": "臺北市中山區錦州街331~360號"}}, {"type": "Feature", "geometry": {"type": "Point", "coordinates": [121.547264, 25.051966]}, "properties": {"type": "bike", "date": 1040307, "time": "12~14", "address": "臺北市松山區南京東路3段331~360號"}}, {"type": "Feature", "geometry": {"type": "Point", "coordinates": [121.553391, 25.027104]}, "properties": {"type": "bike", "date": 1040308, "time": "08~10", "address": "臺北市大安區法治里通化街181~210號"}}, {"type": "Feature", "geometry": {"type": "Point", "coordinates": [121.606829, 25.05467]}, "properties": {"type": "bike", "date": 1040308, "time": "22~24", "address": "臺北市南港區東明里(家樂福前之機車停車格)"}}, {"type": "Feature", "geometry": {"type": "Point", "coordinates": [121.593797, 25.050611]}, "properties": {"type": "bike", "date": 1040314, "time": "14~16", "address": "臺北市南港區合成里忠孝東路6段451~480號"}}, {"type": "Feature", "geometry": {"type": "Point", "coordinates": [121.524674, 25.024888]}, "properties": {"type": "bike", "date": 1040315, "time": "06~08", "address": "臺北市大安區古莊里羅斯福路2段101巷1~30號"}}, {"type": "Feature", "geometry": {"type": "Point", "coordinates": [121.52272, 25.027261]}, "properties": {"type": "bike", "date": 1040315, "time": "08~10", "address": "臺北市大安區和平東路1段151~180號"}}, {"type": "Feature", "geometry": {"type": "Point", "coordinates": [121.533297, 25.016265]}, "properties": {"type": "bike", "date": 1040316, "time": "20~22", "address": "臺北市大安區學府里羅斯福路4段1~30號"}}, {"type": "Feature", "geometry": {"type": "Point", "coordinates": [121.534563, 25.026456]}, "properties": {"type": "bike", "date": 1040317, "time": "12~14", "address": "臺北市大安區華聲里市民大路4段211~240號"}}, {"type": "Feature", "geometry": {"type": "Point", "coordinates": [121.501335, 25.126249]}, "properties": {"type": "bike", "date": 1040318, "time": "06~08", "address": "臺北市北投區清江里三合街2段481~510號"}}, {"type": "Feature", "geometry": {"type": "Point", "coordinates": [121.576102, 25.051245]}, "properties": {"type": "bike", "date": 1040318, "time": "10~12", "address": "臺北市松山區松河街91~120號"}}, {"type": "Feature", "geometry": {"type": "Point", "coordinates": [121.534794, 25.026135]}, "properties": {"type": "bike", "date": 1040318, "time": "16~18", "address": "臺北市大安區福住里新生南路2段31~60號"}}, {"type": "Feature", "geometry": {"type": "Point", "coordinates": [121.616589, 25.053727]}, "properties": {"type": "bike", "date": 1040319, "time": "06~08", "address": "臺北市南港區新富里研究院路1段31~60號"}}, {"type": "Feature", "geometry": {"type": "Point", "coordinates": [121.525533, 25.08593]}, "properties": {"type": "bike", "date": 1040319, "time": "12~14", "address": "臺北市士林區中山北路5段61~90號"}}, {"type": "Feature", "geometry": {"type": "Point", "coordinates": [121.575195, 25.041029]}, "properties": {"type": "bike", "date": 1040320, "time": "12~14", "address": "臺北市信義區忠孝東路5段421~450號"}}, {"type": "Feature", "geometry": {"type": "Point", "coordinates": [121.557659, 25.019717]}, "properties": {"type": "bike", "date": 1040321, "time": "12~14", "address": "臺北市大安區黎和里和平東路3段391~420號"}}, {"type": "Feature", "geometry": {"type": "Point", "coordinates": [121.52609, 25.02479]}, "properties": {"type": "bike", "date": 1040322, "time": "18~20", "address": "臺北市大安區古莊里羅斯福路2段101巷31~60號"}}, {"type": "Feature", "geometry": {"type": "Point", "coordinates": [121.549351, 25.03551]}, "properties": {"type": "bike", "date": 1040323, "time": "10~12", "address": "臺北市大安區敦安里敦化南路1段295巷31~60號"}}, {"type": "Feature", "geometry": {"type": "Point", "coordinates": [121.511388, 25.042551]}, "properties": {"type": "bike", "date": 1040327, "time": "14~16", "address": "臺北市中正區建國里博愛路121~150號"}}, {"type": "Feature", "geometry": {"type": "Point", "coordinates": [121.533562, 25.014491]}, "properties": {"type": "bike", "date": 1040329, "time": "10~12", "address": "臺北市中正區水源里羅斯福路4段52巷16弄(口)"}}, {"type": "Feature", "geometry": {"type": "Point", "coordinates": [121.531267, 25.015872]}, "properties": {"type": "bike", "date": 1040329, "time": "14~16", "address": "臺北市中正區文盛里汀州路3段151~180號"}}, {"type": "Feature", "geometry": {"type": "Point", "coordinates": [121.601717, 25.055892]}, "properties": {"type": "bike", "date": 1040329, "time": "16~18", "address": "臺北市南港區東新里興南街64巷4弄1~30號"}}, {"type": "Feature", "geometry": {"type": "Point", "coordinates": [121.502314, 25.033781]}, "properties": {"type": "bike", "date": 1040331, "time": "10~12", "address": "臺北市萬華區艋舺大道181~210號"}}, {"type": "Feature", "geometry": {"type": "Point", "coordinates": [121.526788, 25.024104]}, "properties": {"type": "bike", "date": 1040402, "time": "08~10", "address": "臺北市大安區古莊里浦城街6巷1~30號"}}, {"type": "Feature", "geometry": {"type": "Point", "coordinates": [121.555824, 25.081794]}, "properties": {"type": "bike", "date": 1040405, "time": "18~20", "address": "臺北市中山區敬業三路121~150號"}}, {"type": "Feature", "geometry": {"type": "Point", "coordinates": [121.511392, 25.062078]}, "properties": {"type": "bike", "date": 1040405, "time": "22~24", "address": "臺北市大同區南芳里延平北路2段241~270號"}}, {"type": "Feature", "geometry": {"type": "Point", "coordinates": [121.574832, 25.070552]}, "properties": {"type": "bike", "date": 1040405, "time": "22~24", "address": "臺北市內湖區湖元里舊宗路2段(內湖運動公園)"}}, {"type": "Feature", "geometry": {"type": "Point", "coordinates": [121.528588, 25.026184]}, "properties": {"type": "bike", "date": 1040407, "time": "08~10", "address": "臺北市大安區龍泉里師大路1~30號"}}, {"type": "Feature", "geometry": {"type": "Point", "coordinates": [121.552121, 25.035141]}, "properties": {"type": "bike", "date": 1040408, "time": "00~02", "address": "臺北市大安區敦安里8鄰安和路1段78巷1~30號"}}, {"type": "Feature", "geometry": {"type": "Point", "coordinates": [121.514181, 25.114913]}, "properties": {"type": "bike", "date": 1040409, "time": "20~22", "address": "臺北市北投區榮光里石牌路1段181~210號"}}, {"type": "Feature", "geometry": {"type": "Point", "coordinates": [121.541099, 25.00268]}, "properties": {"type": "bike", "date": 1040410, "time": "04~06", "address": "臺北市文山區萬祥里興隆路1段102巷1~30號"}}, {"type": "Feature", "geometry": {"type": "Point", "coordinates": [121.510017, 25.072062]}, "properties": {"type": "bike", "date": 1040410, "time": "08~10", "address": "臺北市大同區鄰江里酒泉街228巷"}}, {"type": "Feature", "geometry": {"type": "Point", "coordinates": [121.53958, 25.04325]}, "properties": {"type": "bike", "date": 1040412, "time": "02~04", "address": "臺北市大安區昌隆里忠孝東路3段217巷5弄1~30號"}}, {"type": "Feature", "geometry": {"type": "Point", "coordinates": [121.551363, 25.001959]}, "properties": {"type": "bike", "date": 1040412, "time": "10~12", "address": "臺北市文山區興邦里興隆路2段241~270號"}}, {"type": "Feature", "geometry": {"type": "Point", "coordinates": [121.512075, 25.11049]}, "properties": {"type": "bike", "date": 1040414, "time": "10~12", "address": "臺北市北投區福興里自強街5巷31~60號"}}, {"type": "Feature", "geometry": {"type": "Point", "coordinates": [121.518256, 25.053335]}, "properties": {"type": "bike", "date": 1040415, "time": "06~08", "address": "臺北市大同區建泰里南京西路91~120號"}}, {"type": "Feature", "geometry": {"type": "Point", "coordinates": [121.495572, 25.026993]}, "properties": {"type": "bike", "date": 1040415, "time": "08~10", "address": "臺北市萬華區東園街28巷1~30號"}}, {"type": "Feature", "geometry": {"type": "Point", "coordinates": [121.529563, 25.031126]}, "properties": {"type": "bike", "date": 1040415, "time": "10~12", "address": "臺北市大安區福住里永康街31~60號"}}, {"type": "Feature", "geometry": {"type": "Point", "coordinates": [121.533839, 25.06625]}, "properties": {"type": "bike", "date": 1040415, "time": "14~16", "address": "臺北市中山區農安街227巷31~60號"}}, {"type": "Feature", "geometry": {"type": "Point", "coordinates": [121.526284, 25.092359]}, "properties": {"type": "bike", "date": 1040417, "time": "10~12", "address": "臺北市士林區福德里福德路1~30號"}}, {"type": "Feature", "geometry": {"type": "Point", "coordinates": [121.552311, 25.000603]}, "properties": {"type": "bike", "date": 1040420, "time": "00~02", "address": "臺北市文山區興業里興隆路2段220巷31~60號"}}, {"type": "Feature", "geometry": {"type": "Point", "coordinates": [121.542529, 25.016032]}, "properties": {"type": "bike", "date": 1040421, "time": "10~12", "address": "臺北市大安區基隆路3段156巷(台大校園自行車停車場)"}}, {"type": "Feature", "geometry": {"type": "Point", "coordinates": [121.546253, 24.995121]}, "properties": {"type": "bike", "date": 1040421, "time": "16~18", "address": "臺北市文山區景東里景華街104巷(口)"}}, {"type": "Feature", "geometry": {"type": "Point", "coordinates": [121.514874, 25.058352]}, "properties": {"type": "bike", "date": 1040426, "time": "04~06", "address": "臺北市大同區雙連里重慶北路(歸綏街)"}}, {"type": "Feature", "geometry": {"type": "Point", "coordinates": [121.537959, 25.025742]}, "properties": {"type": "bike", "date": 1040427, "time": "14~16", "address": "臺北市大安區龍門里建國南路2段241~270號"}}, {"type": "Feature", "geometry": {"type": "Point", "coordinates": [121.590752, 25.04956]}, "properties": {"type": "bike", "date": 1040427, "time": "14~16", "address": "臺北市南港區聯成里忠孝東路6段301~330號"}}, {"type": "Feature", "geometry": {"type": "Point", "coordinates": [121.575852, 25.0457]}, "properties": {"type": "bike", "date": 1040428, "time": "10~12", "address": "臺北市信義區永吉路331~360號"}}, {"type": "Feature", "geometry": {"type": "Point", "coordinates": [121.547125, 25.03426]}, "properties": {"type": "bike", "date": 1040501, "time": "02~04", "address": "臺北市大安區德安里四維路76巷"}}, {"type": "Feature", "geometry": {"type": "Point", "coordinates": [121.534794, 25.026135]}, "properties": {"type": "bike", "date": 1040501, "time": "16~18", "address": "臺北市大安區福住里新生南路2段31~60號"}}, {"type": "Feature", "geometry": {"type": "Point", "coordinates": [121.510497, 25.049641]}, "properties": {"type": "bike", "date": 1040501, "time": "16~18", "address": "臺北市大同區北門站"}}, {"type": "Feature", "geometry": {"type": "Point", "coordinates": [121.579742, 25.022904]}, "properties": {"type": "bike", "date": 1040501, "time": "22~24", "address": "臺北市信義區六合里信義路5段150巷271~300號"}}, {"type": "Feature", "geometry": {"type": "Point", "coordinates": [121.565813, 25.065071]}, "properties": {"type": "bike", "date": 1040503, "time": "12~14", "address": "臺北市松山區撫遠街391~420號"}}, {"type": "Feature", "geometry": {"type": "Point", "coordinates": [121.518235, 25.032414]}, "properties": {"type": "bike", "date": 1040503, "time": "16~18", "address": "臺北市中正區新營里捷運古亭站七號"}}, {"type": "Feature", "geometry": {"type": "Point", "coordinates": [121.518235, 25.032414]}, "properties": {"type": "bike", "date": 1040503, "time": "20~22", "address": "臺北市中正區黎明里市民大道"}}, {"type": "Feature", "geometry": {"type": "Point", "coordinates": [121.557088, 24.983626]}, "properties": {"type": "bike", "date": 1040507, "time": "18~20", "address": "臺北市文山區樟文里忠順街1段1~30號"}}, {"type": "Feature", "geometry": {"type": "Point", "coordinates": [121.561335, 24.981741]}, "properties": {"type": "bike", "date": 1040507, "time": "22~24", "address": "臺北市文山區樟樹里木新路3段151~180號"}}, {"type": "Feature", "geometry": {"type": "Point", "coordinates": [121.5284, 25.109476]}, "properties": {"type": "bike", "date": 1040509, "time": "14~16", "address": "臺北市士林區蘭雅里德行東路109巷61~90號"}}, {"type": "Feature", "geometry": {"type": "Point", "coordinates": [121.51696, 25.04155]}, "properties": {"type": "bike", "date": 1040509, "time": "20~22", "address": "臺北市中正區臺大醫院捷運站2號"}}, {"type": "Feature", "geometry": {"type": "Point", "coordinates": [121.525533, 25.08593]}, "properties": {"type": "bike", "date": 1040510, "time": "12~14", "address": "臺北市士林區義信里中山北路5段61~90號"}}, {"type": "Feature", "geometry": {"type": "Point", "coordinates": [121.576799, 25.035034]}, "properties": {"type": "bike", "date": 1040510, "time": "14~16", "address": "臺北市信義區松友里信義路6段72巷2弄31~60號"}}, {"type": "Feature", "geometry": {"type": "Point", "coordinates": [121.502254, 25.022656]}, "properties": {"type": "bike", "date": 1040510, "time": "22~24", "address": "臺北市萬華區青年路106巷1~30號"}}, {"type": "Feature", "geometry": {"type": "Point", "coordinates": [121.549226, 25.000769]}, "properties": {"type": "bike", "date": 1040511, "time": "06~08", "address": "臺北市文山區興邦里興隆路2段181~210號"}}, {"type": "Feature", "geometry": {"type": "Point", "coordinates": [121.499891, 25.034887]}, "properties": {"type": "bike", "date": 1040513, "time": "12~14", "address": "臺北市萬華區貴陽街151~180號"}}, {"type": "Feature", "geometry": {"type": "Point", "coordinates": [121.533081, 25.033227]}, "properties": {"type": "bike", "date": 1040516, "time": "22~24", "address": "臺北市大安區龍門里新生南路2段1~30號"}}, {"type": "Feature", "geometry": {"type": "Point", "coordinates": [121.528024, 25.036505]}, "properties": {"type": "bike", "date": 1040517, "time": "16~18", "address": "臺北市中正區文祥里金山南路1段101巷1~30號"}}, {"type": "Feature", "geometry": {"type": "Point", "coordinates": [121.516048, 25.063268]}, "properties": {"type": "bike", "date": 1040517, "time": "16~18", "address": "臺北市大同區大龍街1~30號"}}, {"type": "Feature", "geometry": {"type": "Point", "coordinates": [121.574476, 25.031585]}, "properties": {"type": "bike", "date": 1040518, "time": "16~18", "address": "臺北市信義區安康里松德路(興雅國中校門口左側)"}}, {"type": "Feature", "geometry": {"type": "Point", "coordinates": [121.525533, 25.08593]}, "properties": {"type": "bike", "date": 1040519, "time": "18~20", "address": "臺北市士林區義信里中山北路5段61~90號"}}, {"type": "Feature", "geometry": {"type": "Point", "coordinates": [121.542902, 25.033242]}, "properties": {"type": "bike", "date": 1040520, "time": "08~10", "address": "臺北市大安區龍圖里信義路3段181~210號"}}, {"type": "Feature", "geometry": {"type": "Point", "coordinates": [121.521134, 25.034985]}, "properties": {"type": "bike", "date": 1040521, "time": "12~14", "address": "臺北市中正區中正紀念堂"}}, {"type": "Feature", "geometry": {"type": "Point", "coordinates": [121.543583, 25.048478]}, "properties": {"type": "bike", "date": 1040526, "time": "08~10", "address": "臺北市中山區撫順公園"}}, {"type": "Feature", "geometry": {"type": "Point", "coordinates": [121.574833, 25.080959]}, "properties": {"type": "bike", "date": 1040527, "time": "16~18", "address": "臺北市內湖區港墘里內湖路1段629巷31~60號"}}, {"type": "Feature", "geometry": {"type": "Point", "coordinates": [121.525533, 25.08593]}, "properties": {"type": "bike", "date": 1040528, "time": "14~16", "address": "臺北市士林區中山北路5段61~90號"}}, {"type": "Feature", "geometry": {"type": "Point", "coordinates": [121.513966, 25.044109]}, "properties": {"type": "bike", "date": 1040529, "time": "00~02", "address": "臺北市中正區黎明里武昌街一段1~30號"}}, {"type": "Feature", "geometry": {"type": "Point", "coordinates": [121.578479, 24.987]}, "properties": {"type": "bike", "date": 1040529, "time": "04~06", "address": "臺北市文山區萬興里指南路2段1~30號"}}, {"type": "Feature", "geometry": {"type": "Point", "coordinates": [121.567398, 24.989906]}, "properties": {"type": "bike", "date": 1040529, "time": "06~08", "address": "臺北市文山區木柵里木柵路3段85巷14弄1~30號"}}, {"type": "Feature", "geometry": {"type": "Point", "coordinates": [121.55983, 25.057628]}, "properties": {"type": "bike", "date": 1040530, "time": "10~12", "address": "臺北市松山區民生東路5段36巷6弄1~30號"}}, {"type": "Feature", "geometry": {"type": "Point", "coordinates": [121.51156, 25.115648]}, "properties": {"type": "bike", "date": 1040530, "time": "16~18", "address": "臺北市北投區吉利里致遠二路61~90號"}}, {"type": "Feature", "geometry": {"type": "Point", "coordinates": [121.520436, 25.052731]}, "properties": {"type": "bike", "date": 1040601, "time": "00~02", "address": "臺北市大同區建泰里南京西路18巷1~30號"}}, {"type": "Feature", "geometry": {"type": "Point", "coordinates": [121.550946, 25.021075]}, "properties": {"type": "bike", "date": 1040601, "time": "04~06", "address": "臺北市大安區芳和里樂業街94巷1~30號"}}, {"type": "Feature", "geometry": {"type": "Point", "coordinates": [121.529227, 25.156269]}, "properties": {"type": "bike", "date": 1040602, "time": "14~16", "address": "臺北市北投區泉源里東昇路91~120號"}}, {"type": "Feature", "geometry": {"type": "Point", "coordinates": [121.533297, 25.016265]}, "properties": {"type": "bike", "date": 1040603, "time": "10~12", "address": "臺北市大安區學府里16鄰羅斯福路4段1~30號"}}, {"type": "Feature", "geometry": {"type": "Point", "coordinates": [121.506164, 25.119724]}, "properties": {"type": "bike", "date": 1040604, "time": "06~08", "address": "臺北市北投區立農里立農街1段279巷2弄1~30號"}}, {"type": "Feature", "geometry": {"type": "Point", "coordinates": [121.576254, 25.041055]}, "properties": {"type": "bike", "date": 1040604, "time": "14~16", "address": "臺北市信義區廣居里忠孝東路5段451~480號"}}, {"type": "Feature", "geometry": {"type": "Point", "coordinates": [121.524076, 25.043942]}, "properties": {"type": "bike", "date": 1040604, "time": "22~24", "address": "臺北市中正區幸福里忠孝東路1段84巷"}}, {"type": "Feature", "geometry": {"type": "Point", "coordinates": [121.523972, 25.03436]}, "properties": {"type": "bike", "date": 1040605, "time": "04~06", "address": "臺北市大安區光明里杭州南路2段9巷1~30號"}}, {"type": "Feature", "geometry": {"type": "Point", "coordinates": [121.526597, 25.028493]}, "properties": {"type": "bike", "date": 1040606, "time": "02~04", "address": "臺北市大安區錦安里7鄰金山南路2段185巷1~30號"}}, {"type": "Feature", "geometry": {"type": "Point", "coordinates": [121.4672, 25.122091]}, "properties": {"type": "bike", "date": 1040607, "time": "12~14", "address": "臺北市北投區關渡里知行路301~330號"}}, {"type": "Feature", "geometry": {"type": "Point", "coordinates": [121.507484, 25.089271]}, "properties": {"type": "bike", "date": 1040609, "time": "00~02", "address": "臺北市士林區社園里延平北路6段151~180號"}}, {"type": "Feature", "geometry": {"type": "Point", "coordinates": [121.617857, 25.072855]}, "properties": {"type": "bike", "date": 1040609, "time": "06~08", "address": "臺北市內湖區康樂街136巷29弄31~60號"}}, {"type": "Feature", "geometry": {"type": "Point", "coordinates": [121.565317, 25.033992]}, "properties": {"type": "bike", "date": 1040609, "time": "16~18", "address": "臺北市信義區松智路(與松廉路口)"}}, {"type": "Feature", "geometry": {"type": "Point", "coordinates": [121.560508, 24.988821]}, "properties": {"type": "bike", "date": 1040609, "time": "20~22", "address": "臺北市文山區明義里木柵路2段61~90號"}}, {"type": "Feature", "geometry": {"type": "Point", "coordinates": [121.512586, 25.111015]}, "properties": {"type": "bike", "date": 1040610, "time": "02~04", "address": "臺北市北投區福興里自強街31巷31~60號"}}, {"type": "Feature", "geometry": {"type": "Point", "coordinates": [121.512586, 25.111015]}, "properties": {"type": "bike", "date": 1040610, "time": "02~04", "address": "臺北市北投區福興里自強街31巷31~60號"}}, {"type": "Feature", "geometry": {"type": "Point", "coordinates": [121.617361, 25.036355]}, "properties": {"type": "bike", "date": 1040613, "time": "00~02", "address": "臺北市南港區九如里研究院路2段211~240號"}}, {"type": "Feature", "geometry": {"type": "Point", "coordinates": [121.566854, 25.053651]}, "properties": {"type": "bike", "date": 1040613, "time": "04~06", "address": "臺北市松山區南京東路5段291巷47弄"}}, {"type": "Feature", "geometry": {"type": "Point", "coordinates": [121.528032, 25.064689]}, "properties": {"type": "bike", "date": 1040613, "time": "12~14", "address": "臺北市中山區新生北路3段31~60號"}}, {"type": "Feature", "geometry": {"type": "Point", "coordinates": [121.528032, 25.064689]}, "properties": {"type": "bike", "date": 1040613, "time": "12~14", "address": "臺北市中山區新生北路3段31~60號"}}, {"type": "Feature", "geometry": {"type": "Point", "coordinates": [121.51983, 25.108788]}, "properties": {"type": "bike", "date": 1040613, "time": "14~16", "address": "臺北市北投區榮華里東華街1段48巷1~30號"}}, {"type": "Feature", "geometry": {"type": "Point", "coordinates": [121.519249, 25.038259]}, "properties": {"type": "bike", "date": 1040613, "time": "16~18", "address": "臺北市中正區東門里信義路1段1~30號"}}, {"type": "Feature", "geometry": {"type": "Point", "coordinates": [121.547996, 24.998724]}, "properties": {"type": "bike", "date": 1040614, "time": "00~02", "address": "臺北市文山區景東里景華街82巷1~30號"}}, {"type": "Feature", "geometry": {"type": "Point", "coordinates": [121.550455, 25.03808]}, "properties": {"type": "bike", "date": 1040615, "time": "16~18", "address": "臺北市大安區敦安里6鄰仁愛路4段121~150號"}}, {"type": "Feature", "geometry": {"type": "Point", "coordinates": [121.528588, 25.026184]}, "properties": {"type": "bike", "date": 1040616, "time": "22~24", "address": "臺北市大安區龍泉里師大路1~30號"}}, {"type": "Feature", "geometry": {"type": "Point", "coordinates": [121.606315, 25.07206]}, "properties": {"type": "bike", "date": 1040619, "time": "04~06", "address": "臺北市內湖區民權東路6段296巷31~60號"}}, {"type": "Feature", "geometry": {"type": "Point", "coordinates": [121.533399, 25.061208]}, "properties": {"type": "bike", "date": 1040619, "time": "04~06", "address": "臺北市中山區松江路301~330號"}}, {"type": "Feature", "geometry": {"type": "Point", "coordinates": [121.582711, 25.045627]}, "properties": {"type": "bike", "date": 1040622, "time": "08~10", "address": "臺北市南港區合成里忠孝東路6段1~30號"}}, {"type": "Feature", "geometry": {"type": "Point", "coordinates": [121.508962, 25.063546]}, "properties": {"type": "bike", "date": 1040623, "time": "04~06", "address": "臺北市大同區環河北路2段1~30號"}}, {"type": "Feature", "geometry": {"type": "Point", "coordinates": [121.606829, 25.05467]}, "properties": {"type": "bike", "date": 1040623, "time": "08~10", "address": "臺北市南港區昆陽捷運站腳踏車停車場"}}, {"type": "Feature", "geometry": {"type": "Point", "coordinates": [121.553332, 25.023956]}, "properties": {"type": "bike", "date": 1040623, "time": "08~10", "address": "臺北市大安區和平東路3段181~210號"}}, {"type": "Feature", "geometry": {"type": "Point", "coordinates": [121.606829, 25.05467]}, "properties": {"type": "bike", "date": 1040623, "time": "08~10", "address": "臺北市南港區合成里(昆陽捷運站旁停車場)"}}, {"type": "Feature", "geometry": {"type": "Point", "coordinates": [121.568882, 25.042959]}, "properties": {"type": "bike", "date": 1040625, "time": "06~08", "address": "臺北市信義區興雅里永吉路30巷121~150號"}}, {"type": "Feature", "geometry": {"type": "Point", "coordinates": [121.563947, 25.039543]}, "properties": {"type": "bike", "date": 1040625, "time": "14~16", "address": "臺北市信義區興雅里松高路1~30號"}}, {"type": "Feature", "geometry": {"type": "Point", "coordinates": [121.517813, 25.110746]}, "properties": {"type": "bike", "date": 1040629, "time": "20~22", "address": "臺北市北投區吉利里西安街1段(石牌國中側門旁人行道~竊腳踏車)"}}, {"type": "Feature", "geometry": {"type": "Point", "coordinates": [121.51092, 25.050351]}, "properties": {"type": "bike", "date": 1040630, "time": "14~16", "address": "臺北市大同區玉泉里鄭州路121~150號"}}, {"type": "Feature", "geometry": {"type": "Point", "coordinates": [121.533297, 25.016265]}, "properties": {"type": "bike", "date": 1040701, "time": "00~02", "address": "臺北市中正區文盛里羅斯福路4段1~30號"}}, {"type": "Feature", "geometry": {"type": "Point", "coordinates": [121.563309, 25.062378]}, "properties": {"type": "bike", "date": 1040701, "time": "20~22", "address": "臺北市松山區南京東路5段(三民路捷運三民南京站)"}}, {"type": "Feature", "geometry": {"type": "Point", "coordinates": [121.531085, 25.033806]}, "properties": {"type": "bike", "date": 1040702, "time": "18~20", "address": "臺北市中正區三愛里信義路2段241~270號"}}, {"type": "Feature", "geometry": {"type": "Point", "coordinates": [121.554194, 24.982556]}, "properties": {"type": "bike", "date": 1040702, "time": "18~20", "address": "臺北市文山區樟文里辛亥路7段69巷1~30號"}}, {"type": "Feature", "geometry": {"type": "Point", "coordinates": [121.564912, 25.04131]}, "properties": {"type": "bike", "date": 1040703, "time": "20~22", "address": "臺北市信義區興雅里忠孝東路5段1~30號"}}, {"type": "Feature", "geometry": {"type": "Point", "coordinates": [121.521156, 25.060613]}, "properties": {"type": "bike", "date": 1040704, "time": "14~16", "address": "臺北市中山區天祥路1~30號"}}, {"type": "Feature", "geometry": {"type": "Point", "coordinates": [121.533297, 25.016265]}, "properties": {"type": "bike", "date": 1040705, "time": "10~12", "address": "臺北市大安區學府里羅斯福路4段1~30號"}}, {"type": "Feature", "geometry": {"type": "Point", "coordinates": [121.564912, 25.04131]}, "properties": {"type": "bike", "date": 1040705, "time": "16~18", "address": "臺北市信義區永春里忠孝東路5段(後山埤捷運站1號"}}, {"type": "Feature", "geometry": {"type": "Point", "coordinates": [121.523168, 25.059216]}, "properties": {"type": "bike", "date": 1040706, "time": "14~16", "address": "臺北市中山區中山北路2段91~120號"}}, {"type": "Feature", "geometry": {"type": "Point", "coordinates": [121.538057, 25.029602]}, "properties": {"type": "bike", "date": 1040707, "time": "12~14", "address": "臺北市大安區新龍里建國南路2段121~150號"}}, {"type": "Feature", "geometry": {"type": "Point", "coordinates": [121.507798, 25.025722]}, "properties": {"type": "bike", "date": 1040707, "time": "16~18", "address": "臺北市萬華區中華路2段504巷1~30號"}}, {"type": "Feature", "geometry": {"type": "Point", "coordinates": [121.536572, 25.000468]}, "properties": {"type": "bike", "date": 1040708, "time": "12~14", "address": "臺北市文山區萬隆里萬隆街61~90號"}}, {"type": "Feature", "geometry": {"type": "Point", "coordinates": [121.557464, 25.048592]}, "properties": {"type": "bike", "date": 1040710, "time": "10~12", "address": "臺北市松山區光復北路61~90號"}}, {"type": "Feature", "geometry": {"type": "Point", "coordinates": [121.513161, 25.108777]}, "properties": {"type": "bike", "date": 1040712, "time": "14~16", "address": "臺北市北投區文林里文林北路241~270號"}}, {"type": "Feature", "geometry": {"type": "Point", "coordinates": [121.513161, 25.108777]}, "properties": {"type": "bike", "date": 1040712, "time": "18~20", "address": "臺北市北投區文林里文林北路241~270號"}}, {"type": "Feature", "geometry": {"type": "Point", "coordinates": [121.565336, 25.062068]}, "properties": {"type": "bike", "date": 1040713, "time": "10~12", "address": "臺北市松山區新東街60巷1~30號"}}, {"type": "Feature", "geometry": {"type": "Point", "coordinates": [121.498753, 25.129023]}, "properties": {"type": "bike", "date": 1040714, "time": "12~14", "address": "臺北市北投區中央里大興街24巷6弄1~30號"}}, {"type": "Feature", "geometry": {"type": "Point", "coordinates": [121.552633, 25.089349]}, "properties": {"type": "bike", "date": 1040714, "time": "18~20", "address": "臺北市中山區劍南路捷運站自行車停放處"}}, {"type": "Feature", "geometry": {"type": "Point", "coordinates": [121.515921, 25.110298]}, "properties": {"type": "bike", "date": 1040714, "time": "22~24", "address": "臺北市北投區石牌里自強街120巷15弄(口)"}}, {"type": "Feature", "geometry": {"type": "Point", "coordinates": [121.512278, 25.06853]}, "properties": {"type": "bike", "date": 1040715, "time": "16~18", "address": "臺北市大同區國慶里民族西路252(大同公園)巷"}}, {"type": "Feature", "geometry": {"type": "Point", "coordinates": [121.556512, 25.005102]}, "properties": {"type": "bike", "date": 1040716, "time": "16~18", "address": "臺北市文山區興泰里15鄰辛亥路4段130巷"}}, {"type": "Feature", "geometry": {"type": "Point", "coordinates": [121.604907, 25.051984]}, "properties": {"type": "bike", "date": 1040718, "time": "18~20", "address": "臺北市南港區中南里忠孝東路7段361~390號"}}, {"type": "Feature", "geometry": {"type": "Point", "coordinates": [121.53693, 25.045408]}, "properties": {"type": "bike", "date": 1040720, "time": "22~24", "address": "臺北市中山區建國南路1段1~30號"}}, {"type": "Feature", "geometry": {"type": "Point", "coordinates": [121.517263, 25.118978]}, "properties": {"type": "bike", "date": 1040722, "time": "10~12", "address": "臺北市北投區永明里立農街2段331~360號"}}, {"type": "Feature", "geometry": {"type": "Point", "coordinates": [121.517388, 25.034328]}, "properties": {"type": "bike", "date": 1040726, "time": "12~14", "address": "臺北市中正區新營里羅斯福路1段1~30號"}}, {"type": "Feature", "geometry": {"type": "Point", "coordinates": [121.589853, 25.039368]}, "properties": {"type": "bike", "date": 1040727, "time": "08~10", "address": "臺北市南港區成福里成福路241~270號"}}, {"type": "Feature", "geometry": {"type": "Point", "coordinates": [121.528072, 25.024694]}, "properties": {"type": "bike", "date": 1040727, "time": "20~22", "address": "臺北市大安區古莊里浦城街1~30號"}}, {"type": "Feature", "geometry": {"type": "Point", "coordinates": [121.525533, 25.08593]}, "properties": {"type": "bike", "date": 1040728, "time": "18~20", "address": "臺北市士林區義信里中山北路5段61~90號"}}, {"type": "Feature", "geometry": {"type": "Point", "coordinates": [121.545716, 24.998089]}, "properties": {"type": "bike", "date": 1040801, "time": "12~14", "address": "臺北市文山區興福里13鄰興隆路2段22巷8弄1~30號"}}, {"type": "Feature", "geometry": {"type": "Point", "coordinates": [121.542245, 25.067978]}, "properties": {"type": "bike", "date": 1040802, "time": "10~12", "address": "臺北市中山區民族東路181~210號"}}, {"type": "Feature", "geometry": {"type": "Point", "coordinates": [121.577024, 25.043362]}, "properties": {"type": "bike", "date": 1040803, "time": "00~02", "address": "臺北市信義區長春里虎林街82巷1~30號"}}, {"type": "Feature", "geometry": {"type": "Point", "coordinates": [121.541568, 24.996197]}, "properties": {"type": "bike", "date": 1040803, "time": "14~16", "address": "臺北市文山區景華里三福街1~30號"}}, {"type": "Feature", "geometry": {"type": "Point", "coordinates": [121.517813, 25.110746]}, "properties": {"type": "bike", "date": 1040804, "time": "06~08", "address": "臺北市北投區榮光里西安街1段(石牌捷運站2號"}}, {"type": "Feature", "geometry": {"type": "Point", "coordinates": [121.570326, 25.082244]}, "properties": {"type": "bike", "date": 1040805, "time": "20~22", "address": "臺北市內湖區內湖路1段387巷3弄1~30號"}}, {"type": "Feature", "geometry": {"type": "Point", "coordinates": [121.560411, 25.028288]}, "properties": {"type": "bike", "date": 1040806, "time": "02~04", "address": "臺北市信義區景勤里吳興街156巷31~60號"}}, {"type": "Feature", "geometry": {"type": "Point", "coordinates": [121.499261, 25.026128]}, "properties": {"type": "bike", "date": 1040806, "time": "20~22", "address": "臺北市萬華區民和街31~60號"}}, {"type": "Feature", "geometry": {"type": "Point", "coordinates": [121.498558, 25.131975]}, "properties": {"type": "bike", "date": 1040807, "time": "18~20", "address": "臺北市北投區大同里光明路1~30號"}}, {"type": "Feature", "geometry": {"type": "Point", "coordinates": [121.526284, 25.092359]}, "properties": {"type": "bike", "date": 1040809, "time": "20~22", "address": "臺北市士林區福德里福德路1~30號"}}, {"type": "Feature", "geometry": {"type": "Point", "coordinates": [121.613782, 25.05561]}, "properties": {"type": "bike", "date": 1040810, "time": "12~14", "address": "臺北市南港區三重里三重路1~30號"}}, {"type": "Feature", "geometry": {"type": "Point", "coordinates": [121.498558, 25.131975]}, "properties": {"type": "bike", "date": 1040810, "time": "14~16", "address": "臺北市北投區大同里光明路1~30號"}}, {"type": "Feature", "geometry": {"type": "Point", "coordinates": [121.518848, 25.109035]}, "properties": {"type": "bike", "date": 1040810, "time": "20~22", "address": "臺北市北投區石牌里明德路91~120號"}}, {"type": "Feature", "geometry": {"type": "Point", "coordinates": [121.606829, 25.05467]}, "properties": {"type": "bike", "date": 1040814, "time": "00~02", "address": "臺北市南港區三重里(南港展覽館捷運站5號"}}, {"type": "Feature", "geometry": {"type": "Point", "coordinates": [121.580988, 25.044856]}, "properties": {"type": "bike", "date": 1040814, "time": "10~12", "address": "臺北市信義區永春里中坡北路15巷(口)"}}, {"type": "Feature", "geometry": {"type": "Point", "coordinates": [121.525965, 25.087778]}, "properties": {"type": "bike", "date": 1040815, "time": "00~02", "address": "臺北市士林區文林路91~120號"}}, {"type": "Feature", "geometry": {"type": "Point", "coordinates": [121.505549, 25.115985]}, "properties": {"type": "bike", "date": 1040815, "time": "10~12", "address": "臺北市北投區承德路7段(洲美橋下)"}}, {"type": "Feature", "geometry": {"type": "Point", "coordinates": [121.544058, 25.041867]}, "properties": {"type": "bike", "date": 1040816, "time": "00~02", "address": "臺北市信義區興隆里忠孝東路4段(國館捷運3號"}}, {"type": "Feature", "geometry": {"type": "Point", "coordinates": [121.549798, 25.041367]}, "properties": {"type": "bike", "date": 1040816, "time": "12~14", "address": "臺北市大安區建倫里忠孝東路4段121~150號"}}, {"type": "Feature", "geometry": {"type": "Point", "coordinates": [121.593797, 25.050611]}, "properties": {"type": "bike", "date": 1040817, "time": "20~22", "address": "臺北市南港區新光里忠孝東路6段451~480號"}}, {"type": "Feature", "geometry": {"type": "Point", "coordinates": [121.530587, 25.120299]}, "properties": {"type": "bike", "date": 1040817, "time": "20~22", "address": "臺北市士林區天玉里中山北路7段51巷1~30號"}}, {"type": "Feature", "geometry": {"type": "Point", "coordinates": [121.534563, 25.026456]}, "properties": {"type": "bike", "date": 1040819, "time": "14~16", "address": "臺北市大安區信義路與敦化路(口)"}}, {"type": "Feature", "geometry": {"type": "Point", "coordinates": [121.515017, 25.045434]}, "properties": {"type": "bike", "date": 1040820, "time": "02~04", "address": "臺北市中正區黎明里館前路1~30號"}}, {"type": "Feature", "geometry": {"type": "Point", "coordinates": [121.519999, 25.054901]}, "properties": {"type": "bike", "date": 1040821, "time": "08~10", "address": "臺北市大同區光能里赤峰街41巷1~30號"}}, {"type": "Feature", "geometry": {"type": "Point", "coordinates": [121.519999, 25.054901]}, "properties": {"type": "bike", "date": 1040821, "time": "08~10", "address": "臺北市大同區光能里赤峰街41巷1~30號"}}, {"type": "Feature", "geometry": {"type": "Point", "coordinates": [121.550769, 25.033615]}, "properties": {"type": "bike", "date": 1040821, "time": "14~16", "address": "臺北市大安區義安里信義路4段181~210號"}}, {"type": "Feature", "geometry": {"type": "Point", "coordinates": [121.514248, 25.047082]}, "properties": {"type": "bike", "date": 1040823, "time": "10~12", "address": "臺北市中正區黎明里忠孝西路1段31~60號"}}, {"type": "Feature", "geometry": {"type": "Point", "coordinates": [121.573862, 25.040984]}, "properties": {"type": "bike", "date": 1040824, "time": "00~02", "address": "臺北市信義區興雅里忠孝東路5段(市府捷運站YOUBIKE自行車停放區)"}}, {"type": "Feature", "geometry": {"type": "Point", "coordinates": [121.546837, 25.024923]}, "properties": {"type": "bike", "date": 1040826, "time": "18~20", "address": "臺北市大安區芳和里5鄰和平東路3段151~180號"}}, {"type": "Feature", "geometry": {"type": "Point", "coordinates": [121.618758, 25.06994]}, "properties": {"type": "bike", "date": 1040828, "time": "18~20", "address": "臺北市內湖區康樂街76巷1~30號"}}, {"type": "Feature", "geometry": {"type": "Point", "coordinates": [121.520675, 25.093044]}, "properties": {"type": "bike", "date": 1040830, "time": "08~10", "address": "臺北市士林區福德里中正路435巷1~30號"}}, {"type": "Feature", "geometry": {"type": "Point", "coordinates": [121.543522, 25.027278]}, "properties": {"type": "bike", "date": 1040830, "time": "16~18", "address": "臺北市大安區住安里復興南路2段1~30號"}}, {"type": "Feature", "geometry": {"type": "Point", "coordinates": [121.518848, 25.109035]}, "properties": {"type": "bike", "date": 1040830, "time": "18~20", "address": "臺北市北投區石牌里明德路91~120號"}}, {"type": "Feature", "geometry": {"type": "Point", "coordinates": [121.592607, 25.0504]}, "properties": {"type": "bike", "date": 1040831, "time": "10~12", "address": "臺北市南港區合成里忠孝東路6段403巷(口)"}}, {"type": "Feature", "geometry": {"type": "Point", "coordinates": [121.524949, 25.086359]}, "properties": {"type": "bike", "date": 1040901, "time": "16~18", "address": "臺北市士林區承德里基河路1~30號"}}, {"type": "Feature", "geometry": {"type": "Point", "coordinates": [121.529701, 25.023616]}, "properties": {"type": "bike", "date": 1040902, "time": "00~02", "address": "臺北市大安區古風里雲和街61~90號"}}, {"type": "Feature", "geometry": {"type": "Point", "coordinates": [121.557629, 25.047743]}, "properties": {"type": "bike", "date": 1040903, "time": "06~08", "address": "臺北市信義區新仁里忠孝東路4段(光復南路口國館4號"}}, {"type": "Feature", "geometry": {"type": "Point", "coordinates": [121.557354, 25.005573]}, "properties": {"type": "bike", "date": 1040904, "time": "14~16", "address": "臺北市文山區興泰里辛亥路4段(辛亥捷運站自行車停車格)"}}, {"type": "Feature", "geometry": {"type": "Point", "coordinates": [121.515366, 25.066056]}, "properties": {"type": "bike", "date": 1040906, "time": "20~22", "address": "臺北市大同區玉泉里捷運北門站2號"}}, {"type": "Feature", "geometry": {"type": "Point", "coordinates": [121.498558, 25.131975]}, "properties": {"type": "bike", "date": 1040907, "time": "16~18", "address": "臺北市北投區光明路1~30號"}}, {"type": "Feature", "geometry": {"type": "Point", "coordinates": [121.534563, 25.026456]}, "properties": {"type": "bike", "date": 1040907, "time": "18~20", "address": "臺北市大安區學府里辛亥路與羅斯福路口"}}, {"type": "Feature", "geometry": {"type": "Point", "coordinates": [121.52662, 25.095288]}, "properties": {"type": "bike", "date": 1040908, "time": "06~08", "address": "臺北市士林區舊佳里中正路211~240號"}}, {"type": "Feature", "geometry": {"type": "Point", "coordinates": [121.517813, 25.110746]}, "properties": {"type": "bike", "date": 1040909, "time": "16~18", "address": "臺北市北投區石牌里西安街1段(明德捷運站旁人行道)"}}, {"type": "Feature", "geometry": {"type": "Point", "coordinates": [121.525533, 25.08593]}, "properties": {"type": "bike", "date": 1040910, "time": "06~08", "address": "臺北市士林區義信里中山北路5段61~90號"}}, {"type": "Feature", "geometry": {"type": "Point", "coordinates": [121.588596, 25.068924]}, "properties": {"type": "bike", "date": 1040910, "time": "12~14", "address": "臺北市內湖區民權東路6段136巷31~60號"}}, {"type": "Feature", "geometry": {"type": "Point", "coordinates": [121.523551, 25.101741]}, "properties": {"type": "bike", "date": 1040911, "time": "06~08", "address": "臺北市士林區德行里福國路61~90號"}}, {"type": "Feature", "geometry": {"type": "Point", "coordinates": [121.525533, 25.08593]}, "properties": {"type": "bike", "date": 1040912, "time": "12~14", "address": "臺北市士林區義信里中山北路5段61~90號"}}, {"type": "Feature", "geometry": {"type": "Point", "coordinates": [121.511538, 25.073678]}, "properties": {"type": "bike", "date": 1040912, "time": "22~24", "address": "臺北市大同區老師里延平北路4段181~210號"}}, {"type": "Feature", "geometry": {"type": "Point", "coordinates": [121.51707, 25.047923]}, "properties": {"type": "bike", "date": 1040913, "time": "08~10", "address": "臺北市中正區黎明里北平西路3段((臺北火車站外東北角行人道))"}}, {"type": "Feature", "geometry": {"type": "Point", "coordinates": [121.51717, 25.041402]}, "properties": {"type": "bike", "date": 1040913, "time": "20~22", "address": "臺北市中正區黎明里常德街1~30號"}}, {"type": "Feature", "geometry": {"type": "Point", "coordinates": [121.589886, 25.071983]}, "properties": {"type": "bike", "date": 1040914, "time": "06~08", "address": "臺北市內湖區成功路2段321巷"}}, {"type": "Feature", "geometry": {"type": "Point", "coordinates": [121.51943, 25.048711]}, "properties": {"type": "bike", "date": 1040914, "time": "18~20", "address": "臺北市大同區華陰街24巷6弄"}}, {"type": "Feature", "geometry": {"type": "Point", "coordinates": [121.51943, 25.048711]}, "properties": {"type": "bike", "date": 1040914, "time": "18~20", "address": "臺北市中山區華陰街24巷6弄"}}, {"type": "Feature", "geometry": {"type": "Point", "coordinates": [121.561451, 25.059741]}, "properties": {"type": "bike", "date": 1040915, "time": "00~02", "address": "臺北市松山區民生東路5段137巷口"}}, {"type": "Feature", "geometry": {"type": "Point", "coordinates": [121.540603, 25.028344]}, "properties": {"type": "bike", "date": 1040915, "time": "00~02", "address": "臺北市大安區瑞安街208巷1~30號"}}, {"type": "Feature", "geometry": {"type": "Point", "coordinates": [121.519893, 25.031253]}, "properties": {"type": "bike", "date": 1040915, "time": "02~04", "address": "臺北市中正區新營里羅斯福路1段83巷1~30號"}}, {"type": "Feature", "geometry": {"type": "Point", "coordinates": [121.525324, 25.037935]}, "properties": {"type": "bike", "date": 1040915, "time": "04~06", "address": "臺北市中正區文祥里杭州南路1段101巷1~30號"}}, {"type": "Feature", "geometry": {"type": "Point", "coordinates": [121.537315, 25.058707]}, "properties": {"type": "bike", "date": 1040915, "time": "06~08", "address": "臺北市中山區建國北路2段91~120號"}}, {"type": "Feature", "geometry": {"type": "Point", "coordinates": [121.523529, 25.044554]}, "properties": {"type": "bike", "date": 1040915, "time": "20~22", "address": "臺北市中正區幸福里忠孝東路1段58巷(善導寺捷運站3號"}}, {"type": "Feature", "geometry": {"type": "Point", "coordinates": [121.543654, 25.046152]}, "properties": {"type": "bike", "date": 1040915, "time": "20~22", "address": "臺北市大安區復興南路1段361~390號"}}, {"type": "Feature", "geometry": {"type": "Point", "coordinates": [121.566864, 25.044769]}, "properties": {"type": "bike", "date": 1040917, "time": "04~06", "address": "臺北市信義區基隆路1段121~150號"}}, {"type": "Feature", "geometry": {"type": "Point", "coordinates": [121.507124, 25.047479]}, "properties": {"type": "bike", "date": 1040917, "time": "16~18", "address": "臺北市萬華區西寧南路61~90號"}}, {"type": "Feature", "geometry": {"type": "Point", "coordinates": [121.52217, 25.02828]}, "properties": {"type": "bike", "date": 1040918, "time": "06~08", "address": "臺北市大安區羅斯福路2段15巷"}}, {"type": "Feature", "geometry": {"type": "Point", "coordinates": [121.51092, 25.050351]}, "properties": {"type": "bike", "date": 1040919, "time": "18~20", "address": "臺北市大同區鄭州路121~150號"}}, {"type": "Feature", "geometry": {"type": "Point", "coordinates": [121.511338, 25.085717]}, "properties": {"type": "bike", "date": 1040919, "time": "18~20", "address": "臺北市士林區葫東里重慶北路4段220巷1~30號"}}, {"type": "Feature", "geometry": {"type": "Point", "coordinates": [121.516414, 25.035055]}, "properties": {"type": "bike", "date": 1040919, "time": "22~24", "address": "臺北市中正區建國里(中山南路與愛國西路口)"}}, {"type": "Feature", "geometry": {"type": "Point", "coordinates": [121.538637, 25.004666]}, "properties": {"type": "bike", "date": 1040921, "time": "16~18", "address": "臺北市文山區萬年里羅斯福路5段170巷(公館街口)"}}, {"type": "Feature", "geometry": {"type": "Point", "coordinates": [121.507484, 25.089271]}, "properties": {"type": "bike", "date": 1040923, "time": "08~10", "address": "臺北市士林區社園里延平北路6段151~180號"}}, {"type": "Feature", "geometry": {"type": "Point", "coordinates": [121.508571, 25.035451]}, "properties": {"type": "bike", "date": 1040923, "time": "16~18", "address": "臺北市中正區南門里廣州街8巷(口)"}}, {"type": "Feature", "geometry": {"type": "Point", "coordinates": [121.51893, 25.070288]}, "properties": {"type": "bike", "date": 1040924, "time": "06~08", "address": "臺北市大同區至聖里承德路3段225巷1~30號"}}, {"type": "Feature", "geometry": {"type": "Point", "coordinates": [121.51893, 25.070288]}, "properties": {"type": "bike", "date": 1040924, "time": "08~10", "address": "臺北市大同區至聖里承德路3段225巷1~30號"}}, {"type": "Feature", "geometry": {"type": "Point", "coordinates": [121.574732, 25.049486]}, "properties": {"type": "bike", "date": 1040926, "time": "22~24", "address": "臺北市松山區市民大道6段(腳踏車停放區)"}}, {"type": "Feature", "geometry": {"type": "Point", "coordinates": [121.540461, 25.051853]}, "properties": {"type": "bike", "date": 1040929, "time": "08~10", "address": "臺北市中山區南京東路3段與龍江路口"}}, {"type": "Feature", "geometry": {"type": "Point", "coordinates": [121.533297, 25.016265]}, "properties": {"type": "bike", "date": 1041001, "time": "10~12", "address": "臺北市大安區學府里羅斯福路4段1~30號"}}, {"type": "Feature", "geometry": {"type": "Point", "coordinates": [121.535312, 25.118008]}, "properties": {"type": "bike", "date": 1041001, "time": "16~18", "address": "臺北市士林區中山北路忠誠路口"}}, {"type": "Feature", "geometry": {"type": "Point", "coordinates": [121.533628, 25.064251]}, "properties": {"type": "bike", "date": 1041001, "time": "22~24", "address": "臺北市中山區圓山捷運站自行車停車場"}}, {"type": "Feature", "geometry": {"type": "Point", "coordinates": [121.522111, 25.027842]}, "properties": {"type": "bike", "date": 1041002, "time": "08~10", "address": "臺北市大安區羅斯福路2段31~60號"}}, {"type": "Feature", "geometry": {"type": "Point", "coordinates": [121.576235, 25.077891]}, "properties": {"type": "bike", "date": 1041002, "time": "22~24", "address": "臺北市內湖區港墘路127巷1~30號"}}, {"type": "Feature", "geometry": {"type": "Point", "coordinates": [121.523939, 25.028604]}, "properties": {"type": "bike", "date": 1041004, "time": "02~04", "address": "臺北市大安區杭州南路2段93巷31~60號"}}, {"type": "Feature", "geometry": {"type": "Point", "coordinates": [121.505615, 25.046015]}, "properties": {"type": "bike", "date": 1041004, "time": "18~20", "address": "臺北市萬華區漢口街2段61~90號"}}, {"type": "Feature", "geometry": {"type": "Point", "coordinates": [121.522039, 25.052483]}, "properties": {"type": "bike", "date": 1041005, "time": "18~20", "address": "臺北市大同區光能里南京西路25巷1~30號"}}, {"type": "Feature", "geometry": {"type": "Point", "coordinates": [121.522039, 25.052483]}, "properties": {"type": "bike", "date": 1041005, "time": "18~20", "address": "臺北市中山區南京西路25巷1~30號"}}, {"type": "Feature", "geometry": {"type": "Point", "coordinates": [121.510457, 25.050704]}, "properties": {"type": "bike", "date": 1041006, "time": "16~18", "address": "臺北市大同區玉泉里忠孝西路(塔城街)"}}, {"type": "Feature", "geometry": {"type": "Point", "coordinates": [121.617209, 25.042409]}, "properties": {"type": "bike", "date": 1041007, "time": "16~18", "address": "臺北市南港區舊莊里舊莊街1段1~30號"}}, {"type": "Feature", "geometry": {"type": "Point", "coordinates": [121.51092, 25.050351]}, "properties": {"type": "bike", "date": 1041007, "time": "20~22", "address": "臺北市大同區玉泉里鄭州路121~150號"}}, {"type": "Feature", "geometry": {"type": "Point", "coordinates": [121.526261, 25.022484]}, "properties": {"type": "bike", "date": 1041008, "time": "18~20", "address": "臺北市中正區頂東里羅斯福路3段91~120號"}}, {"type": "Feature", "geometry": {"type": "Point", "coordinates": [121.530541, 25.013449]}, "properties": {"type": "bike", "date": 1041010, "time": "06~08", "address": "臺北市中正區富水里思源街1~30號"}}, {"type": "Feature", "geometry": {"type": "Point", "coordinates": [121.505, 25.038383]}, "properties": {"type": "bike", "date": 1041010, "time": "10~12", "address": "臺北市萬華區永福街31~60號"}}, {"type": "Feature", "geometry": {"type": "Point", "coordinates": [121.613968, 25.053133]}, "properties": {"type": "bike", "date": 1041010, "time": "10~12", "address": "臺北市南港區中南里忠孝東路7段571~600號"}}, {"type": "Feature", "geometry": {"type": "Point", "coordinates": [121.575265, 25.047178]}, "properties": {"type": "bike", "date": 1041010, "time": "20~22", "address": "臺北市信義區四育里虎林街46巷31~60號"}}, {"type": "Feature", "geometry": {"type": "Point", "coordinates": [121.515062, 25.06678]}, "properties": {"type": "bike", "date": 1041011, "time": "04~06", "address": "臺北市大同區揚雅里昌吉街61巷35弄1~30號"}}, {"type": "Feature", "geometry": {"type": "Point", "coordinates": [121.515062, 25.06678]}, "properties": {"type": "bike", "date": 1041011, "time": "04~06", "address": "臺北市大同區揚雅里昌吉街61巷35弄1~30號"}}, {"type": "Feature", "geometry": {"type": "Point", "coordinates": [121.513909, 25.065088]}, "properties": {"type": "bike", "date": 1041011, "time": "06~08", "address": "臺北市大同區蓬萊里重慶北路3段31~60號"}}, {"type": "Feature", "geometry": {"type": "Point", "coordinates": [121.509882, 25.083833]}, "properties": {"type": "bike", "date": 1041011, "time": "16~18", "address": "臺北市士林區葫東里延平北路5段211~240號"}}, {"type": "Feature", "geometry": {"type": "Point", "coordinates": [121.534563, 25.026456]}, "properties": {"type": "bike", "date": 1041012, "time": "16~18", "address": "臺北市大安區敦安里仁愛路與安和路口"}}, {"type": "Feature", "geometry": {"type": "Point", "coordinates": [121.466335, 25.123526]}, "properties": {"type": "bike", "date": 1041013, "time": "12~14", "address": "臺北市北投區一德里大度路3段296巷(關渡捷運站前自行車停放區)"}}, {"type": "Feature", "geometry": {"type": "Point", "coordinates": [121.617137, 25.074348]}, "properties": {"type": "bike", "date": 1041014, "time": "12~14", "address": "臺北市內湖區安泰街53巷1~30號"}}, {"type": "Feature", "geometry": {"type": "Point", "coordinates": [121.530541, 25.013449]}, "properties": {"type": "bike", "date": 1041015, "time": "08~10", "address": "臺北市中正區富水里思源街1~30號"}}, {"type": "Feature", "geometry": {"type": "Point", "coordinates": [121.522881, 25.066806]}, "properties": {"type": "bike", "date": 1041016, "time": "14~16", "address": "臺北市中山區德惠街1~30號"}}, {"type": "Feature", "geometry": {"type": "Point", "coordinates": [121.530541, 25.013449]}, "properties": {"type": "bike", "date": 1041019, "time": "06~08", "address": "臺北市中正區富水里思源街1~30號"}}, {"type": "Feature", "geometry": {"type": "Point", "coordinates": [121.530701, 25.043035]}, "properties": {"type": "bike", "date": 1041019, "time": "14~16", "address": "臺北市中正區幸市里忠孝東路二段91~120號"}}, {"type": "Feature", "geometry": {"type": "Point", "coordinates": [121.510737, 25.064536]}, "properties": {"type": "bike", "date": 1041021, "time": "18~20", "address": "臺北市大同區景星里伊寧街48巷1~30號"}}, {"type": "Feature", "geometry": {"type": "Point", "coordinates": [121.555232, 25.041522]}, "properties": {"type": "bike", "date": 1041023, "time": "08~10", "address": "臺北市大安區華聲里忠孝東路4段301~330號"}}, {"type": "Feature", "geometry": {"type": "Point", "coordinates": [121.518564, 25.026524]}, "properties": {"type": "bike", "date": 1041026, "time": "10~12", "address": "臺北市中正區板溪里和平西路1段31~60號"}}, {"type": "Feature", "geometry": {"type": "Point", "coordinates": [121.542383, 24.994726]}, "properties": {"type": "bike", "date": 1041026, "time": "20~22", "address": "臺北市文山區景華里景華街22巷1~30號"}}, {"type": "Feature", "geometry": {"type": "Point", "coordinates": [121.53868, 25.007681]}, "properties": {"type": "bike", "date": 1041027, "time": "06~08", "address": "臺北市文山區萬年里羅斯福路5段31~60號"}}, {"type": "Feature", "geometry": {"type": "Point", "coordinates": [121.530936, 25.106931]}, "properties": {"type": "bike", "date": 1041027, "time": "12~14", "address": "臺北市士林區聖山里忠誠路1段171巷10弄1~30號"}}, {"type": "Feature", "geometry": {"type": "Point", "coordinates": [121.500524, 25.04273]}, "properties": {"type": "bike", "date": 1041027, "time": "20~22", "address": "臺北市萬華區西昌街21巷1~30號"}}, {"type": "Feature", "geometry": {"type": "Point", "coordinates": [121.514907, 25.073739]}, "properties": {"type": "bike", "date": 1041101, "time": "12~14", "address": "臺北市大同區保安里重慶北路3段295巷21弄1~30號"}}, {"type": "Feature", "geometry": {"type": "Point", "coordinates": [121.511085, 25.054506]}, "properties": {"type": "bike", "date": 1041102, "time": "08~10", "address": "臺北市大同區永樂里民樂街31~60號"}}, {"type": "Feature", "geometry": {"type": "Point", "coordinates": [121.515219, 25.035122]}, "properties": {"type": "bike", "date": 1041103, "time": "14~16", "address": "臺北市中正區愛國西路與重慶南路(小南門站2號"}}, {"type": "Feature", "geometry": {"type": "Point", "coordinates": [121.578607, 25.036121]}, "properties": {"type": "bike", "date": 1041103, "time": "18~20", "address": "臺北市信義區松隆里福德街1~30號"}}, {"type": "Feature", "geometry": {"type": "Point", "coordinates": [121.542902, 25.033242]}, "properties": {"type": "bike", "date": 1041103, "time": "20~22", "address": "臺北市大安區龍圖里信義路3段181~210號"}}, {"type": "Feature", "geometry": {"type": "Point", "coordinates": [121.509451, 25.064787]}, "properties": {"type": "bike", "date": 1041104, "time": "04~06", "address": "臺北市大同區景星里迪化街2段61~90號"}}, {"type": "Feature", "geometry": {"type": "Point", "coordinates": [121.516093, 25.063897]}, "properties": {"type": "bike", "date": 1041104, "time": "04~06", "address": "臺北市大同區蓬萊里大龍街31~60號"}}, {"type": "Feature", "geometry": {"type": "Point", "coordinates": [121.519727, 25.049272]}, "properties": {"type": "bike", "date": 1041105, "time": "00~02", "address": "臺北市大同區建明里華陰街31~60號"}}, {"type": "Feature", "geometry": {"type": "Point", "coordinates": [121.575501, 25.080209]}, "properties": {"type": "bike", "date": 1041105, "time": "20~22", "address": "臺北市內湖區內湖路1段661~690號"}}, {"type": "Feature", "geometry": {"type": "Point", "coordinates": [121.506313, 25.037692]}, "properties": {"type": "bike", "date": 1041108, "time": "12~14", "address": "臺北市萬華區桂林路1~30號"}}, {"type": "Feature", "geometry": {"type": "Point", "coordinates": [121.549351, 25.03551]}, "properties": {"type": "bike", "date": 1041109, "time": "04~06", "address": "臺北市大安區敦安里敦化南路1段295巷31~60號"}}, {"type": "Feature", "geometry": {"type": "Point", "coordinates": [121.561788, 25.030362]}, "properties": {"type": "bike", "date": 1041110, "time": "18~20", "address": "臺北市信義區景新里莊敬路211~240號"}}, {"type": "Feature", "geometry": {"type": "Point", "coordinates": [121.586734, 25.078798]}, "properties": {"type": "bike", "date": 1041111, "time": "10~12", "address": "臺北市內湖區文德路211~240號"}}, {"type": "Feature", "geometry": {"type": "Point", "coordinates": [121.561034, 25.035863]}, "properties": {"type": "bike", "date": 1041111, "time": "22~24", "address": "臺北市信義區西村里基隆路1段331~360號"}}, {"type": "Feature", "geometry": {"type": "Point", "coordinates": [121.559083, 25.062463]}, "properties": {"type": "bike", "date": 1041112, "time": "14~16", "address": "臺北市內湖區民權東路4段181~210號"}}, {"type": "Feature", "geometry": {"type": "Point", "coordinates": [121.519029, 25.041949]}, "properties": {"type": "bike", "date": 1041112, "time": "20~22", "address": "臺北市中正區徐州路1~30號"}}, {"type": "Feature", "geometry": {"type": "Point", "coordinates": [121.51925, 25.108629]}, "properties": {"type": "bike", "date": 1041115, "time": "10~12", "address": "臺北市北投區石牌里西安街1段121~150號"}}, {"type": "Feature", "geometry": {"type": "Point", "coordinates": [121.541171, 25.025415]}, "properties": {"type": "bike", "date": 1041115, "time": "10~12", "address": "臺北市大安區龍生里和平東路2段151~180號"}}, {"type": "Feature", "geometry": {"type": "Point", "coordinates": [121.544228, 25.035194]}, "properties": {"type": "bike", "date": 1041120, "time": "22~24", "address": "臺北市大安區仁慈里復興南路1段295巷13弄1~30號"}}, {"type": "Feature", "geometry": {"type": "Point", "coordinates": [121.519029, 25.041949]}, "properties": {"type": "bike", "date": 1041121, "time": "02~04", "address": "臺北市中正區東門里徐州路1~30號"}}, {"type": "Feature", "geometry": {"type": "Point", "coordinates": [121.514005, 25.111435]}, "properties": {"type": "bike", "date": 1041121, "time": "10~12", "address": "臺北市北投區福興里致遠一路2段31~60號"}}, {"type": "Feature", "geometry": {"type": "Point", "coordinates": [121.542232, 25.060303]}, "properties": {"type": "bike", "date": 1041122, "time": "02~04", "address": "臺北市中山區錦州街421~450號"}}, {"type": "Feature", "geometry": {"type": "Point", "coordinates": [121.518031, 25.029532]}, "properties": {"type": "bike", "date": 1041122, "time": "16~18", "address": "臺北市中正區南福里南昌路1段126巷1~30號"}}, {"type": "Feature", "geometry": {"type": "Point", "coordinates": [121.563947, 25.039543]}, "properties": {"type": "bike", "date": 1041122, "time": "16~18", "address": "臺北市信義區興雅里松高路1~30號"}}, {"type": "Feature", "geometry": {"type": "Point", "coordinates": [121.51556, 25.111834]}, "properties": {"type": "bike", "date": 1041123, "time": "08~10", "address": "臺北市北投區榮光里石牌路1段166巷121~150號"}}, {"type": "Feature", "geometry": {"type": "Point", "coordinates": [121.500564, 25.126087]}, "properties": {"type": "bike", "date": 1041124, "time": "14~16", "address": "臺北市北投區中央里中央南路2段1~30號"}}, {"type": "Feature", "geometry": {"type": "Point", "coordinates": [121.572736, 25.017087]}, "properties": {"type": "bike", "date": 1041126, "time": "14~16", "address": "臺北市信義區泰和里吳興街600巷100弄91~120號"}}, {"type": "Feature", "geometry": {"type": "Point", "coordinates": [121.585069, 25.045789]}, "properties": {"type": "bike", "date": 1041127, "time": "16~18", "address": "臺北市南港區萬福里同德路61~90號"}}, {"type": "Feature", "geometry": {"type": "Point", "coordinates": [121.499935, 25.036779]}, "properties": {"type": "bike", "date": 1041128, "time": "18~20", "address": "臺北市萬華區廣州街211~240號"}}, {"type": "Feature", "geometry": {"type": "Point", "coordinates": [121.587309, 25.068496]}, "properties": {"type": "bike", "date": 1041201, "time": "12~14", "address": "臺北市內湖區民權東路6段120巷1弄1~30號"}}, {"type": "Feature", "geometry": {"type": "Point", "coordinates": [121.544244, 25.048858]}, "properties": {"type": "bike", "date": 1041202, "time": "00~02", "address": "臺北市松山區復興北路151~180號"}}, {"type": "Feature", "geometry": {"type": "Point", "coordinates": [121.520921, 25.058064]}, "properties": {"type": "bike", "date": 1041203, "time": "02~04", "address": "臺北市中山區民生西路45巷3弄1~30號"}}, {"type": "Feature", "geometry": {"type": "Point", "coordinates": [121.514565, 25.113119]}, "properties": {"type": "bike", "date": 1041203, "time": "06~08", "address": "臺北市北投區榮光里石牌路1段166巷61~90號"}}, {"type": "Feature", "geometry": {"type": "Point", "coordinates": [121.517771, 25.112571]}, "properties": {"type": "bike", "date": 1041203, "time": "14~16", "address": "臺北市北投區裕民里東陽街411巷1~30號"}}, {"type": "Feature", "geometry": {"type": "Point", "coordinates": [121.582243, 25.045545]}, "properties": {"type": "bike", "date": 1041203, "time": "16~18", "address": "臺北市南港區合成里永吉路601~630號"}}, {"type": "Feature", "geometry": {"type": "Point", "coordinates": [121.518548, 25.109632]}, "properties": {"type": "bike", "date": 1041204, "time": "22~24", "address": "臺北市北投區石牌里西安街1段165巷(對面人行道)"}}, {"type": "Feature", "geometry": {"type": "Point", "coordinates": [121.518235, 25.032414]}, "properties": {"type": "bike", "date": 1041205, "time": "12~14", "address": "臺北市中正區黎明里7號"}}, {"type": "Feature", "geometry": {"type": "Point", "coordinates": [121.61512, 25.069797]}, "properties": {"type": "bike", "date": 1041206, "time": "06~08", "address": "臺北市內湖區東湖路113巷49弄31~60號"}}, {"type": "Feature", "geometry": {"type": "Point", "coordinates": [121.517575, 25.073457]}, "properties": {"type": "bike", "date": 1041206, "time": "18~20", "address": "臺北市大同區保安里哈密街68巷1~30號"}}, {"type": "Feature", "geometry": {"type": "Point", "coordinates": [121.551363, 25.001959]}, "properties": {"type": "bike", "date": 1041210, "time": "00~02", "address": "臺北市文山區興豐里興隆路2段241~270號"}}, {"type": "Feature", "geometry": {"type": "Point", "coordinates": [121.519141, 25.058597]}, "properties": {"type": "bike", "date": 1041210, "time": "22~24", "address": "臺北市大同區雙連里雙連街31~60號"}}, {"type": "Feature", "geometry": {"type": "Point", "coordinates": [121.518764, 25.065139]}, "properties": {"type": "bike", "date": 1041213, "time": "10~12", "address": "臺北市大同區蓬萊里承德路3段51巷1~30號"}}, {"type": "Feature", "geometry": {"type": "Point", "coordinates": [121.515366, 25.066056]}, "properties": {"type": "bike", "date": 1041219, "time": "22~24", "address": "臺北市大同區蔣渭水公園之YOUBIKE租借站"}}, {"type": "Feature", "geometry": {"type": "Point", "coordinates": [121.504622, 25.033397]}, "properties": {"type": "bike", "date": 1041220, "time": "02~04", "address": "臺北市中正區廈安里汀州路1段1~30號"}}, {"type": "Feature", "geometry": {"type": "Point", "coordinates": [121.548161, 25.080788]}, "properties": {"type": "bike", "date": 1041220, "time": "14~16", "address": "臺北市中山區北安路569之1~30號"}}, {"type": "Feature", "geometry": {"type": "Point", "coordinates": [121.533297, 25.016265]}, "properties": {"type": "bike", "date": 1041220, "time": "18~20", "address": "臺北市大安區羅斯福路4段1~30號"}}, {"type": "Feature", "geometry": {"type": "Point", "coordinates": [121.56854, 25.026877]}, "properties": {"type": "bike", "date": 1041222, "time": "18~20", "address": "臺北市信義區三張里松仁路211~240號"}}, {"type": "Feature", "geometry": {"type": "Point", "coordinates": [121.549392, 25.078735]}, "properties": {"type": "bike", "date": 1041223, "time": "22~24", "address": "臺北市中山區明水路397巷19弄1~30號"}}, {"type": "Feature", "geometry": {"type": "Point", "coordinates": [121.514081, 25.115973]}, "properties": {"type": "bike", "date": 1041224, "time": "16~18", "address": "臺北市北投區榮光里西安街2段(石牌國中側門人行道上)"}}, {"type": "Feature", "geometry": {"type": "Point", "coordinates": [121.543723, 24.996088]}, "properties": {"type": "bike", "date": 1041225, "time": "12~14", "address": "臺北市文山區景華里景興路46巷(景興國中左側門)"}}, {"type": "Feature", "geometry": {"type": "Point", "coordinates": [121.544043, 24.992261]}, "properties": {"type": "bike", "date": 1041225, "time": "16~18", "address": "臺北市文山區景華里景興路46弄(景興國中大門旁停車格)"}}, {"type": "Feature", "geometry": {"type": "Point", "coordinates": [121.524917, 25.065028]}, "properties": {"type": "bike", "date": 1041225, "time": "18~20", "address": "臺北市中山區農安街31~60號"}}, {"type": "Feature", "geometry": {"type": "Point", "coordinates": [121.526616, 25.067912]}, "properties": {"type": "bike", "date": 1041225, "time": "18~20", "address": "臺北市中山區新生北路3段88巷口"}}, {"type": "Feature", "geometry": {"type": "Point", "coordinates": [121.511112, 25.12153]}, "properties": {"type": "bike", "date": 1041226, "time": "18~20", "address": "臺北市北投區東華里致遠三路91~120號"}}, {"type": "Feature", "geometry": {"type": "Point", "coordinates": [121.528032, 25.064689]}, "properties": {"type": "bike", "date": 1041226, "time": "18~20", "address": "臺北市中山區新生北路3段31~60號"}}, {"type": "Feature", "geometry": {"type": "Point", "coordinates": [121.542225, 24.99508]}, "properties": {"type": "bike", "date": 1041227, "time": "22~24", "address": "臺北市文山區景華里景華街31~60號"}}, {"type": "Feature", "geometry": {"type": "Point", "coordinates": [121.508571, 25.035451]}, "properties": {"type": "bike", "date": 1041228, "time": "18~20", "address": "臺北市中正區南門里廣州街8巷(口)"}}, {"type": "Feature", "geometry": {"type": "Point", "coordinates": [121.558937, 25.031524]}, "properties": {"type": "bike", "date": 1041229, "time": "08~10", "address": "臺北市信義區景聯里基隆路2段31~60號"}}, {"type": "Feature", "geometry": {"type": "Point", "coordinates": [121.528767, 25.061361]}, "properties": {"type": "bike", "date": 1041229, "time": "20~22", "address": "臺北市中山區新生北路2段137巷31~60號"}}, {"type": "Feature", "geometry": {"type": "Point", "coordinates": [121.500788, 25.039486]}, "properties": {"type": "bike", "date": 1041231, "time": "00~02", "address": "臺北市萬華區西昌街151~180號"}}, {"type": "Feature", "geometry": {"type": "Point", "coordinates": [121.549709, 25.037813]}, "properties": {"type": "bike", "date": 1050101, "time": "02~04", "address": "臺北市信義區正和里仁愛路4段481~510號"}}, {"type": "Feature", "geometry": {"type": "Point", "coordinates": [121.614703, 25.052661]}, "properties": {"type": "bike", "date": 1050101, "time": "18~20", "address": "臺北市南港區中南里忠孝東路7段596巷1~30號"}}, {"type": "Feature", "geometry": {"type": "Point", "coordinates": [121.500465, 25.035342]}, "properties": {"type": "bike", "date": 1050103, "time": "22~24", "address": "臺北市萬華區和平西路3段121~150號"}}, {"type": "Feature", "geometry": {"type": "Point", "coordinates": [121.502681, 25.132303]}, "properties": {"type": "bike", "date": 1050104, "time": "20~22", "address": "臺北市北投區洲美里洲美街(洲美橋下401巷61~90號"}}, {"type": "Feature", "geometry": {"type": "Point", "coordinates": [121.545081, 25.016785]}, "properties": {"type": "bike", "date": 1050105, "time": "22~24", "address": "臺北市大安區長興街31~60號"}}, {"type": "Feature", "geometry": {"type": "Point", "coordinates": [121.498866, 25.092525]}, "properties": {"type": "bike", "date": 1050110, "time": "08~10", "address": "臺北市士林區永倫里延平北路6段481~510號"}}, {"type": "Feature", "geometry": {"type": "Point", "coordinates": [121.543563, 25.026216]}, "properties": {"type": "bike", "date": 1050110, "time": "10~12", "address": "臺北市大安區復興南路2段211~240號"}}, {"type": "Feature", "geometry": {"type": "Point", "coordinates": [121.574732, 25.049486]}, "properties": {"type": "bike", "date": 1050118, "time": "12~14", "address": "臺北市松山區市民大道6段"}}, {"type": "Feature", "geometry": {"type": "Point", "coordinates": [121.501695, 25.023102]}, "properties": {"type": "bike", "date": 1050118, "time": "22~24", "address": "臺北市萬華區萬青街151~180號"}}, {"type": "Feature", "geometry": {"type": "Point", "coordinates": [121.565818, 25.052026]}, "properties": {"type": "bike", "date": 1050122, "time": "16~18", "address": "臺北市松山區南京東路5段291巷6弄1~30號"}}, {"type": "Feature", "geometry": {"type": "Point", "coordinates": [121.525854, 25.093821]}, "properties": {"type": "bike", "date": 1050126, "time": "12~14", "address": "臺北市士林區福德里中正路247巷(士林捷運站1號"}}, {"type": "Feature", "geometry": {"type": "Point", "coordinates": [121.513336, 25.114563]}, "properties": {"type": "bike", "date": 1050127, "time": "14~16", "address": "臺北市北投區石牌里石牌路1段121~150號"}}, {"type": "Feature", "geometry": {"type": "Point", "coordinates": [121.537786, 25.041915]}, "properties": {"type": "bike", "date": 1050128, "time": "00~02", "address": "臺北市大安區民輝里忠孝東路3段61~90號"}}, {"type": "Feature", "geometry": {"type": "Point", "coordinates": [121.514181, 25.114913]}, "properties": {"type": "bike", "date": 1050130, "time": "16~18", "address": "臺北市北投區榮光里石牌路1段181~210號"}}, {"type": "Feature", "geometry": {"type": "Point", "coordinates": [121.508391, 25.119392]}, "properties": {"type": "bike", "date": 1050202, "time": "16~18", "address": "臺北市北投區立農里立農街1段571~600號"}}, {"type": "Feature", "geometry": {"type": "Point", "coordinates": [121.496495, 25.020067]}, "properties": {"type": "bike", "date": 1050204, "time": "02~04", "address": "臺北市萬華區萬大路486巷31~60號"}}, {"type": "Feature", "geometry": {"type": "Point", "coordinates": [121.515366, 25.066056]}, "properties": {"type": "bike", "date": 1050204, "time": "10~12", "address": "臺北市大同區重慶北3路3段31~60號"}}, {"type": "Feature", "geometry": {"type": "Point", "coordinates": [121.533628, 25.064251]}, "properties": {"type": "bike", "date": 1050204, "time": "12~14", "address": "臺北市中山區市民大道與中山北路口西北角"}}, {"type": "Feature", "geometry": {"type": "Point", "coordinates": [121.50798, 25.042655]}, "properties": {"type": "bike", "date": 1050206, "time": "02~04", "address": "臺北市萬華區成都路1~30號"}}, {"type": "Feature", "geometry": {"type": "Point", "coordinates": [121.540775, 25.059544]}, "properties": {"type": "bike", "date": 1050207, "time": "14~16", "address": "臺北市中山區龍江路271~300號"}}, {"type": "Feature", "geometry": {"type": "Point", "coordinates": [121.569022, 25.04936]}, "properties": {"type": "bike", "date": 1050209, "time": "16~18", "address": "臺北市松山區八德路4段"}}, {"type": "Feature", "geometry": {"type": "Point", "coordinates": [121.533516, 25.033876]}, "properties": {"type": "bike", "date": 1050210, "time": "10~12", "address": "臺北市文山區信義路3段91~120號"}}, {"type": "Feature", "geometry": {"type": "Point", "coordinates": [121.511931, 25.024031]}, "properties": {"type": "bike", "date": 1050213, "time": "18~20", "address": "臺北市萬華區水源路181~210號"}}, {"type": "Feature", "geometry": {"type": "Point", "coordinates": [121.619971, 25.074566]}, "properties": {"type": "bike", "date": 1050216, "time": "04~06", "address": "臺北市內湖區康樂街151巷1~30號"}}, {"type": "Feature", "geometry": {"type": "Point", "coordinates": [121.516249, 25.054495]}, "properties": {"type": "bike", "date": 1050217, "time": "00~02", "address": "臺北市大同區星明里太原路152巷1~30號"}}, {"type": "Feature", "geometry": {"type": "Point", "coordinates": [121.533297, 25.016265]}, "properties": {"type": "bike", "date": 1050217, "time": "04~06", "address": "臺北市中正區水源里羅斯福路4段78巷1弄(內)"}}, {"type": "Feature", "geometry": {"type": "Point", "coordinates": [121.551834, 25.044754]}, "properties": {"type": "bike", "date": 1050218, "time": "10~12", "address": "臺北市大安區華聲里市民大道4段181~210號"}}, {"type": "Feature", "geometry": {"type": "Point", "coordinates": [121.551728, 24.99699]}, "properties": {"type": "bike", "date": 1050220, "time": "12~14", "address": "臺北市文山區興業里23鄰辛亥路5段124巷"}}, {"type": "Feature", "geometry": {"type": "Point", "coordinates": [121.56096, 25.084665]}, "properties": {"type": "bike", "date": 1050220, "time": "16~18", "address": "臺北市內湖區(內湖路一段1巷口旁人行道)"}}, {"type": "Feature", "geometry": {"type": "Point", "coordinates": [121.530122, 25.105385]}, "properties": {"type": "bike", "date": 1050221, "time": "20~22", "address": "臺北市士林區聖山里忠義街31~60號"}}, {"type": "Feature", "geometry": {"type": "Point", "coordinates": [121.543563, 25.026216]}, "properties": {"type": "bike", "date": 1050222, "time": "10~12", "address": "臺北市大安區群賢里復興南路2段211~240號"}}, {"type": "Feature", "geometry": {"type": "Point", "coordinates": [121.520038, 25.032762]}, "properties": {"type": "bike", "date": 1050224, "time": "08~10", "address": "臺北市中正區新營里寧波東街9巷1~30號"}}, {"type": "Feature", "geometry": {"type": "Point", "coordinates": [121.547987, 25.034353]}, "properties": {"type": "bike", "date": 1050225, "time": "12~14", "address": "臺北市大安區德安里四維路76巷1~30號"}}, {"type": "Feature", "geometry": {"type": "Point", "coordinates": [121.533185, 25.046329]}, "properties": {"type": "bike", "date": 1050228, "time": "20~22", "address": "臺北市中山區松江路91~120號"}}, {"type": "Feature", "geometry": {"type": "Point", "coordinates": [121.529437, 25.062808]}, "properties": {"type": "bike", "date": 1050301, "time": "12~14", "address": "臺北市中山區民權東路2段31~60號"}}, {"type": "Feature", "geometry": {"type": "Point", "coordinates": [121.506304, 25.045948]}, "properties": {"type": "bike", "date": 1050302, "time": "04~06", "address": "臺北市萬華區漢口街2段53巷1~30號"}}, {"type": "Feature", "geometry": {"type": "Point", "coordinates": [121.508275, 25.042932]}, "properties": {"type": "bike", "date": 1050303, "time": "12~14", "address": "臺北市萬華區中華路1段1~30號"}}, {"type": "Feature", "geometry": {"type": "Point", "coordinates": [121.556818, 25.035363]}, "properties": {"type": "bike", "date": 1050304, "time": "16~18", "address": "臺北市大安區光信里光復南路456巷1~30號"}}, {"type": "Feature", "geometry": {"type": "Point", "coordinates": [121.570296, 24.989467]}, "properties": {"type": "bike", "date": 1050305, "time": "08~10", "address": "臺北市文山區試院里28鄰木柵路177巷(內)"}}, {"type": "Feature", "geometry": {"type": "Point", "coordinates": [121.568428, 25.031448]}, "properties": {"type": "bike", "date": 1050305, "time": "14~16", "address": "臺北市信義區安康里松仁路95巷1~30號"}}, {"type": "Feature", "geometry": {"type": "Point", "coordinates": [121.533775, 25.041812]}, "properties": {"type": "bike", "date": 1050305, "time": "20~22", "address": "臺北市大安區民輝里忠孝東路3段10巷"}}, {"type": "Feature", "geometry": {"type": "Point", "coordinates": [121.523726, 25.044564]}, "properties": {"type": "bike", "date": 1050306, "time": "20~22", "address": "臺北市中正區幸市里忠孝東路1段70巷(善導寺捷運站3號"}}, {"type": "Feature", "geometry": {"type": "Point", "coordinates": [121.530541, 25.013449]}, "properties": {"type": "bike", "date": 1050308, "time": "08~10", "address": "臺北市中正區富水里思源街1~30號"}}, {"type": "Feature", "geometry": {"type": "Point", "coordinates": [121.530024, 25.059889]}, "properties": {"type": "bike", "date": 1050309, "time": "16~18", "address": "臺北市中山區吉林路252之1~30號"}}, {"type": "Feature", "geometry": {"type": "Point", "coordinates": [121.568426, 25.031599]}, "properties": {"type": "bike", "date": 1050311, "time": "10~12", "address": "臺北市信義區安康里松仁路61~90號"}}, {"type": "Feature", "geometry": {"type": "Point", "coordinates": [121.520839, 25.074896]}, "properties": {"type": "bike", "date": 1050311, "time": "18~20", "address": "臺北市大同區重慶里敦煌路21巷"}}, {"type": "Feature", "geometry": {"type": "Point", "coordinates": [121.511092, 25.068814]}, "properties": {"type": "bike", "date": 1050314, "time": "12~14", "address": "臺北市大同區民族西路271~300號"}}, {"type": "Feature", "geometry": {"type": "Point", "coordinates": [121.511092, 25.068814]}, "properties": {"type": "bike", "date": 1050314, "time": "12~14", "address": "臺北市大同區民族西路271~300號"}}, {"type": "Feature", "geometry": {"type": "Point", "coordinates": [121.511092, 25.068814]}, "properties": {"type": "bike", "date": 1050314, "time": "12~14", "address": "臺北市大同區國慶里民族西路271~300號"}}, {"type": "Feature", "geometry": {"type": "Point", "coordinates": [121.519193, 25.072614]}, "properties": {"type": "bike", "date": 1050314, "time": "14~16", "address": "臺北市大同區重慶里承德路3段271~300號"}}, {"type": "Feature", "geometry": {"type": "Point", "coordinates": [121.53293, 25.04232]}, "properties": {"type": "bike", "date": 1050314, "time": "16~18", "address": "臺北市大安區民輝里捷運忠孝新生站4號"}}, {"type": "Feature", "geometry": {"type": "Point", "coordinates": [121.619971, 25.074566]}, "properties": {"type": "bike", "date": 1050314, "time": "20~22", "address": "臺北市內湖區康樂街151巷(巷口人行道)"}}, {"type": "Feature", "geometry": {"type": "Point", "coordinates": [121.619318, 25.07113]}, "properties": {"type": "bike", "date": 1050316, "time": "08~10", "address": "臺北市內湖區康樂街125巷1~30號"}}, {"type": "Feature", "geometry": {"type": "Point", "coordinates": [121.57708, 25.075325]}, "properties": {"type": "bike", "date": 1050316, "time": "14~16", "address": "臺北市內湖區瑞光路271~300號"}}, {"type": "Feature", "geometry": {"type": "Point", "coordinates": [121.518235, 25.032414]}, "properties": {"type": "bike", "date": 1050316, "time": "18~20", "address": "臺北市中正區台北車站東側人行道自行車架處路"}}, {"type": "Feature", "geometry": {"type": "Point", "coordinates": [121.567454, 25.058467]}, "properties": {"type": "bike", "date": 1050319, "time": "10~12", "address": "臺北市松山區新東街20巷"}}, {"type": "Feature", "geometry": {"type": "Point", "coordinates": [121.58002, 25.042538]}, "properties": {"type": "bike", "date": 1050319, "time": "18~20", "address": "臺北市信義區永春里忠孝東路5段703巷1弄1~30號"}}, {"type": "Feature", "geometry": {"type": "Point", "coordinates": [121.58002, 25.042538]}, "properties": {"type": "bike", "date": 1050320, "time": "18~20", "address": "臺北市信義區永春里忠孝東路5段703巷1弄1~30號"}}, {"type": "Feature", "geometry": {"type": "Point", "coordinates": [121.526284, 25.092359]}, "properties": {"type": "bike", "date": 1050321, "time": "16~18", "address": "臺北市士林區福德里福德路1~30號"}}, {"type": "Feature", "geometry": {"type": "Point", "coordinates": [121.538057, 25.029602]}, "properties": {"type": "bike", "date": 1050322, "time": "16~18", "address": "臺北市大安區新龍里建國南路2段121~150號"}}, {"type": "Feature", "geometry": {"type": "Point", "coordinates": [121.500465, 25.035342]}, "properties": {"type": "bike", "date": 1050322, "time": "18~20", "address": "臺北市萬華區和平西路3段121~150號"}}, {"type": "Feature", "geometry": {"type": "Point", "coordinates": [121.591179, 25.080724]}, "properties": {"type": "bike", "date": 1050327, "time": "00~02", "address": "臺北市內湖區成功路4段1~30號"}}, {"type": "Feature", "geometry": {"type": "Point", "coordinates": [121.510168, 25.111448]}, "properties": {"type": "bike", "date": 1050327, "time": "10~12", "address": "臺北市北投區福興里承德路7段61~90號"}}, {"type": "Feature", "geometry": {"type": "Point", "coordinates": [121.540857, 24.992618]}, "properties": {"type": "bike", "date": 1050327, "time": "22~24", "address": "臺北市文山區景行里羅斯福路6段361~390號"}}, {"type": "Feature", "geometry": {"type": "Point", "coordinates": [121.56772, 25.033131]}, "properties": {"type": "bike", "date": 1050327, "time": "22~24", "address": "臺北市信義區興隆里忠孝東路(國父紀念館捷運站3號"}}, {"type": "Feature", "geometry": {"type": "Point", "coordinates": [121.504698, 25.045899]}, "properties": {"type": "bike", "date": 1050328, "time": "02~04", "address": "臺北市萬華區萬壽里漢口街2段74巷1~30號"}}, {"type": "Feature", "geometry": {"type": "Point", "coordinates": [121.52625, 25.094419]}, "properties": {"type": "bike", "date": 1050328, "time": "14~16", "address": "臺北市士林區福林里中正路235巷31~60號"}}, {"type": "Feature", "geometry": {"type": "Point", "coordinates": [121.530472, 25.063989]}, "properties": {"type": "bike", "date": 1050329, "time": "02~04", "address": "臺北市中山區吉林路331~360號"}}, {"type": "Feature", "geometry": {"type": "Point", "coordinates": [121.615376, 25.068571]}, "properties": {"type": "bike", "date": 1050330, "time": "08~10", "address": "臺北市內湖區東湖路91~120號"}}, {"type": "Feature", "geometry": {"type": "Point", "coordinates": [121.60719, 25.055502]}, "properties": {"type": "bike", "date": 1050331, "time": "22~24", "address": "臺北市南港區南港里興中路28巷(口對面人行道)"}}, {"type": "Feature", "geometry": {"type": "Point", "coordinates": [121.573563, 25.08082]}, "properties": {"type": "bike", "date": 1050402, "time": "14~16", "address": "臺北市內湖區內湖路1段601~630號"}}, {"type": "Feature", "geometry": {"type": "Point", "coordinates": [121.582711, 25.045627]}, "properties": {"type": "bike", "date": 1050405, "time": "06~08", "address": "臺北市南港區合成里忠孝東路6段1~30號"}}, {"type": "Feature", "geometry": {"type": "Point", "coordinates": [121.507155, 25.128641]}, "properties": {"type": "bike", "date": 1050405, "time": "12~14", "address": "臺北市北投區奇岩里公館路181~210號"}}, {"type": "Feature", "geometry": {"type": "Point", "coordinates": [121.485429, 25.137839]}, "properties": {"type": "bike", "date": 1050408, "time": "14~16", "address": "臺北市北投區桃源里中央北路3段53巷1~30號"}}, {"type": "Feature", "geometry": {"type": "Point", "coordinates": [121.504183, 25.028662]}, "properties": {"type": "bike", "date": 1050409, "time": "18~20", "address": "臺北市萬華區中華路2段364巷31~60號"}}, {"type": "Feature", "geometry": {"type": "Point", "coordinates": [121.525288, 25.090043]}, "properties": {"type": "bike", "date": 1050410, "time": "00~02", "address": "臺北市士林區仁勇里大北路61~90號"}}, {"type": "Feature", "geometry": {"type": "Point", "coordinates": [121.518792, 25.031559]}, "properties": {"type": "bike", "date": 1050410, "time": "00~02", "address": "臺北市中正區南福里寧波西街1~30號"}}, {"type": "Feature", "geometry": {"type": "Point", "coordinates": [121.50448, 25.120582]}, "properties": {"type": "bike", "date": 1050410, "time": "06~08", "address": "臺北市北投區八仙里立農街1段187巷10弄1~30號"}}, {"type": "Feature", "geometry": {"type": "Point", "coordinates": [121.563775, 25.051538]}, "properties": {"type": "bike", "date": 1050410, "time": "10~12", "address": "臺北市松山區南京東路5段181~210號"}}, {"type": "Feature", "geometry": {"type": "Point", "coordinates": [121.533444, 25.047608]}, "properties": {"type": "bike", "date": 1050414, "time": "00~02", "address": "臺北市中山區松江路37巷1~30號"}}, {"type": "Feature", "geometry": {"type": "Point", "coordinates": [121.593697, 25.051722]}, "properties": {"type": "bike", "date": 1050417, "time": "20~22", "address": "臺北市南港區西新里昆陽街91~120號"}}, {"type": "Feature", "geometry": {"type": "Point", "coordinates": [121.504766, 25.032183]}, "properties": {"type": "bike", "date": 1050418, "time": "08~10", "address": "臺北市萬華區中華路2段121~150號"}}, {"type": "Feature", "geometry": {"type": "Point", "coordinates": [121.501849, 25.034826]}, "properties": {"type": "bike", "date": 1050419, "time": "22~24", "address": "臺北市萬華區華江雁鴨公園"}}, {"type": "Feature", "geometry": {"type": "Point", "coordinates": [121.614703, 25.06882]}, "properties": {"type": "bike", "date": 1050420, "time": "14~16", "address": "臺北市內湖區東湖路61~90號"}}, {"type": "Feature", "geometry": {"type": "Point", "coordinates": [121.54537, 25.033776]}, "properties": {"type": "bike", "date": 1050421, "time": "06~08", "address": "臺北市大安區住安里信義路4段61~90號"}}, {"type": "Feature", "geometry": {"type": "Point", "coordinates": [121.532939, 25.033277]}, "properties": {"type": "bike", "date": 1050421, "time": "08~10", "address": "臺北市大安區龍安里新生南路2段61~90號"}}, {"type": "Feature", "geometry": {"type": "Point", "coordinates": [121.533186, 25.038509]}, "properties": {"type": "bike", "date": 1050422, "time": "00~02", "address": "臺北市大安區民炤里仁愛路3段1~30號"}}, {"type": "Feature", "geometry": {"type": "Point", "coordinates": [121.50842, 25.125399]}, "properties": {"type": "bike", "date": 1050422, "time": "14~16", "address": "臺北市北投區奇岩里公館路257巷1~30號"}}, {"type": "Feature", "geometry": {"type": "Point", "coordinates": [121.50842, 25.125399]}, "properties": {"type": "bike", "date": 1050422, "time": "20~22", "address": "臺北市北投區奇岩里公館路257巷1~30號"}}, {"type": "Feature", "geometry": {"type": "Point", "coordinates": [121.514081, 25.115973]}, "properties": {"type": "bike", "date": 1050423, "time": "14~16", "address": "臺北市北投區榮光里西安街2段(石牌國中後門人行道)"}}, {"type": "Feature", "geometry": {"type": "Point", "coordinates": [121.515596, 25.073378]}, "properties": {"type": "bike", "date": 1050424, "time": "18~20", "address": "臺北市大同區保安里哈密街61~90號"}}, {"type": "Feature", "geometry": {"type": "Point", "coordinates": [121.534794, 25.026135]}, "properties": {"type": "bike", "date": 1050425, "time": "18~20", "address": "臺北市大安區福住里新生南路2段31~60號"}}, {"type": "Feature", "geometry": {"type": "Point", "coordinates": [121.541112, 24.994497]}, "properties": {"type": "bike", "date": 1050427, "time": "18~20", "address": "臺北市文山區萬隆里羅斯福路6段1~30號"}}, {"type": "Feature", "geometry": {"type": "Point", "coordinates": [121.548212, 25.043004]}, "properties": {"type": "bike", "date": 1050428, "time": "00~02", "address": "臺北市大安區光武里6鄰忠孝東路4段101巷31~60號"}}, {"type": "Feature", "geometry": {"type": "Point", "coordinates": [121.518235, 25.111069]}, "properties": {"type": "bike", "date": 1050429, "time": "12~14", "address": "臺北市北投區振華里東華街1段(石牌捷運站腳踏車停放處)"}}, {"type": "Feature", "geometry": {"type": "Point", "coordinates": [121.508611, 25.058435]}, "properties": {"type": "bike", "date": 1050429, "time": "18~20", "address": "臺北市大同區大有里環河北路1段271~300號"}}, {"type": "Feature", "geometry": {"type": "Point", "coordinates": [121.515928, 25.028374]}, "properties": {"type": "bike", "date": 1050430, "time": "16~18", "address": "臺北市中正區龍光里重慶南路3段31~60號"}}, {"type": "Feature", "geometry": {"type": "Point", "coordinates": [121.508571, 25.035451]}, "properties": {"type": "bike", "date": 1050501, "time": "14~16", "address": "臺北市中正區南門里廣州街8巷(南門國中旁人行道)"}}, {"type": "Feature", "geometry": {"type": "Point", "coordinates": [121.55484, 25.026177]}, "properties": {"type": "bike", "date": 1050501, "time": "18~20", "address": "臺北市大安區法治里基隆路2段151~180號"}}, {"type": "Feature", "geometry": {"type": "Point", "coordinates": [121.534794, 25.026135]}, "properties": {"type": "bike", "date": 1050502, "time": "08~10", "address": "臺北市大安區福住里新生南路2段31~60號"}}, {"type": "Feature", "geometry": {"type": "Point", "coordinates": [121.527159, 25.047437]}, "properties": {"type": "bike", "date": 1050502, "time": "14~16", "address": "臺北市中山區長安東路1段30巷3弄華山公園"}}, {"type": "Feature", "geometry": {"type": "Point", "coordinates": [121.509892, 25.027463]}, "properties": {"type": "bike", "date": 1050504, "time": "16~18", "address": "臺北市中正區永昌里汀州路1段226巷1~30號"}}, {"type": "Feature", "geometry": {"type": "Point", "coordinates": [121.509323, 25.062566]}, "properties": {"type": "bike", "date": 1050504, "time": "20~22", "address": "臺北市大同區南芳里迪化街1段331~360號"}}, {"type": "Feature", "geometry": {"type": "Point", "coordinates": [121.545176, 25.017698]}, "properties": {"type": "bike", "date": 1050504, "time": "20~22", "address": "臺北市大安區學府里基隆路3段61~90號"}}, {"type": "Feature", "geometry": {"type": "Point", "coordinates": [121.511806, 25.114718]}, "properties": {"type": "bike", "date": 1050505, "time": "06~08", "address": "臺北市北投區吉慶里致遠二路15巷(對面石牌國小人行道上)"}}, {"type": "Feature", "geometry": {"type": "Point", "coordinates": [121.511806, 25.114718]}, "properties": {"type": "bike", "date": 1050505, "time": "16~18", "address": "臺北市北投區吉利里致遠二路15巷"}}, {"type": "Feature", "geometry": {"type": "Point", "coordinates": [121.51561, 25.117265]}, "properties": {"type": "bike", "date": 1050506, "time": "10~12", "address": "臺北市北投區永明里義理街61~90號"}}, {"type": "Feature", "geometry": {"type": "Point", "coordinates": [121.51707, 25.055905]}, "properties": {"type": "bike", "date": 1050508, "time": "06~08", "address": "臺北市大同區星明里太原路175巷1~30號"}}, {"type": "Feature", "geometry": {"type": "Point", "coordinates": [121.50553, 25.028611]}, "properties": {"type": "bike", "date": 1050509, "time": "00~02", "address": "臺北市中正區忠勤里中華路2段309巷1~30號"}}, {"type": "Feature", "geometry": {"type": "Point", "coordinates": [121.525533, 25.08593]}, "properties": {"type": "bike", "date": 1050510, "time": "12~14", "address": "臺北市士林區義信里中山北路5段61~90號"}}, {"type": "Feature", "geometry": {"type": "Point", "coordinates": [121.522591, 25.063929]}, "properties": {"type": "bike", "date": 1050510, "time": "16~18", "address": "臺北市中山區中山北路3段1~30號"}}, {"type": "Feature", "geometry": {"type": "Point", "coordinates": [121.506923, 25.036536]}, "properties": {"type": "bike", "date": 1050510, "time": "22~24", "address": "臺北市中正區愛國里中華路2段75巷1~30號"}}, {"type": "Feature", "geometry": {"type": "Point", "coordinates": [121.504332, 25.041876]}, "properties": {"type": "bike", "date": 1050511, "time": "08~10", "address": "臺北市萬華區內江街81巷1~30號"}}, {"type": "Feature", "geometry": {"type": "Point", "coordinates": [121.556271, 25.032908]}, "properties": {"type": "bike", "date": 1050511, "time": "16~18", "address": "臺北市信義區信義路4段361~390號"}}, {"type": "Feature", "geometry": {"type": "Point", "coordinates": [121.5565, 25.032696]}, "properties": {"type": "bike", "date": 1050512, "time": "02~04", "address": "臺北市大安區通化里信義路4段400巷6弄1~30號"}}, {"type": "Feature", "geometry": {"type": "Point", "coordinates": [121.505944, 25.028166]}, "properties": {"type": "bike", "date": 1050512, "time": "22~24", "address": "臺北市中正區忠勤里中華路2段313巷1~30號"}}, {"type": "Feature", "geometry": {"type": "Point", "coordinates": [121.500855, 25.033618]}, "properties": {"type": "bike", "date": 1050515, "time": "00~02", "address": "臺北市萬華區康定路361~390號"}}, {"type": "Feature", "geometry": {"type": "Point", "coordinates": [121.488969, 25.142211]}, "properties": {"type": "bike", "date": 1050516, "time": "22~24", "address": "臺北市北投區稻香里稻香路161巷1~30號"}}, {"type": "Feature", "geometry": {"type": "Point", "coordinates": [121.528104, 25.029939]}, "properties": {"type": "bike", "date": 1050517, "time": "14~16", "address": "臺北市大安區福住里新生南路與金華街口"}}, {"type": "Feature", "geometry": {"type": "Point", "coordinates": [121.596904, 25.07984]}, "properties": {"type": "bike", "date": 1050519, "time": "20~22", "address": "臺北市內湖區(星雲街168巷口)"}}, {"type": "Feature", "geometry": {"type": "Point", "coordinates": [121.577141, 25.05022]}, "properties": {"type": "bike", "date": 1050519, "time": "20~22", "address": "臺北市松山區八德路4段721~750號"}}, {"type": "Feature", "geometry": {"type": "Point", "coordinates": [121.620625, 25.040064]}, "properties": {"type": "bike", "date": 1050520, "time": "02~04", "address": "臺北市南港區舊莊里舊莊街1段145巷2弄1~30號"}}, {"type": "Feature", "geometry": {"type": "Point", "coordinates": [121.545184, 25.024858]}, "properties": {"type": "bike", "date": 1050520, "time": "20~22", "address": "臺北市大安區群賢里和平東路2段311巷"}}, {"type": "Feature", "geometry": {"type": "Point", "coordinates": [121.518235, 25.032414]}, "properties": {"type": "bike", "date": 1050522, "time": "04~06", "address": "臺北市中正區幸市里(忠孝新生1號"}}, {"type": "Feature", "geometry": {"type": "Point", "coordinates": [121.606919, 25.056667]}, "properties": {"type": "bike", "date": 1050522, "time": "06~08", "address": "臺北市南港區南港里興中路61~90號"}}, {"type": "Feature", "geometry": {"type": "Point", "coordinates": [121.514335, 25.113602]}, "properties": {"type": "bike", "date": 1050522, "time": "20~22", "address": "臺北市北投區石牌里石牌路1段166巷43弄1~30號"}}, {"type": "Feature", "geometry": {"type": "Point", "coordinates": [121.508571, 25.035451]}, "properties": {"type": "bike", "date": 1050523, "time": "10~12", "address": "臺北市中正區南門里廣州街8巷(南門國中旁人行道)"}}, {"type": "Feature", "geometry": {"type": "Point", "coordinates": [121.502179, 25.029367]}, "properties": {"type": "bike", "date": 1050523, "time": "12~14", "address": "臺北市萬華區西藏路125巷1~30號"}}, {"type": "Feature", "geometry": {"type": "Point", "coordinates": [121.542676, 25.000975]}, "properties": {"type": "bike", "date": 1050523, "time": "20~22", "address": "臺北市文山區萬有里景明街11巷(興隆路一段184巷)"}}, {"type": "Feature", "geometry": {"type": "Point", "coordinates": [121.507675, 25.053734]}, "properties": {"type": "bike", "date": 1050524, "time": "06~08", "address": "臺北市大同區朝陽里南京西路331~360號"}}, {"type": "Feature", "geometry": {"type": "Point", "coordinates": [121.508571, 25.035451]}, "properties": {"type": "bike", "date": 1050524, "time": "18~20", "address": "臺北市中正區南門里廣州街8巷(口)"}}, {"type": "Feature", "geometry": {"type": "Point", "coordinates": [121.526284, 25.092359]}, "properties": {"type": "bike", "date": 1050525, "time": "12~14", "address": "臺北市士林區福德里福德路1~30號"}}, {"type": "Feature", "geometry": {"type": "Point", "coordinates": [121.509264, 25.026907]}, "properties": {"type": "bike", "date": 1050525, "time": "18~20", "address": "臺北市中正區永昌里詔安街151~180號"}}, {"type": "Feature", "geometry": {"type": "Point", "coordinates": [121.550144, 25.04893]}, "properties": {"type": "bike", "date": 1050526, "time": "14~16", "address": "臺北市松山區敦化北路1~30號"}}, {"type": "Feature", "geometry": {"type": "Point", "coordinates": [121.567053, 25.082945]}, "properties": {"type": "bike", "date": 1050528, "time": "02~04", "address": "臺北市內湖區西湖里19鄰內湖路1段285巷1~30號"}}, {"type": "Feature", "geometry": {"type": "Point", "coordinates": [121.50175, 25.122383]}, "properties": {"type": "bike", "date": 1050529, "time": "10~12", "address": "臺北市北投區大同里北投路1段1~30號"}}, {"type": "Feature", "geometry": {"type": "Point", "coordinates": [121.534992, 25.111183]}, "properties": {"type": "bike", "date": 1050529, "time": "12~14", "address": "臺北市士林區芝山里芝玉路2段20巷91~120號"}},