{"type": "FeatureCollection", "features": [{"type": "Feature", "geometry": {"type": "Point", "coordinates": [121.528032, 25.064689]}, "properties": {"type": "cycle", "date": "1070101", "time": "02~04", "address": "臺北市中山區新生北路3段31 - 60號"}}, {"type": "Feature", "geometry": {"type": "Point", "coordinates": [121.54905, 25.027271]}, "properties": {"type": "cycle", "date": "1070101", "time": "11~13", "address": "臺北市大安區敦化南路二段181 - 210號"}}, {"type": "Feature", "geometry": {"type": "Point", "coordinates": [121.558731, 25.007296]}, "properties": {"type": "cycle", "date": "1070101", "time": "08~10", "address": "臺北市文山區辛亥路4段61 - 90號"}}, {"type": "Feature", "geometry": {"type": "Point", "coordinates": [121.549159, 25.033024]}, "properties": {"type": "cycle", "date": "1070102", "time": "20~22", "address": "臺北市大安區敦化南路2段1 - 30號"}}, {"type": "Feature", "geometry": {"type": "Point", "coordinates": [121.511931, 25.024031]}, "properties": {"type": "cycle", "date": "1070102", "time": "05~07", "address": "臺北市萬華區水源路181 - 210號"}}, {"type": "Feature", "geometry": {"type": "Point", "coordinates": [121.526551, 25.087029]}, "properties": {"type": "cycle", "date": "1070103", "time": "23~01", "address": "臺北市士林區福林里中山北路5段271 - 300號"}}, {"type": "Feature", "geometry": {"type": "Point", "coordinates": [121.535384, 25.068251]}, "properties": {"type": "cycle", "date": "1070104", "time": "02~04", "address": "臺北市中山區民族東路憲兵指揮部左邊人行道上"}}, {"type": "Feature", "geometry": {"type": "Point", "coordinates": [121.527361, 25.050485]}, "properties": {"type": "cycle", "date": "1070104", "time": "23~01", "address": "臺北市中山區林森北路133巷72弄"}}, {"type": "Feature", "geometry": {"type": "Point", "coordinates": [121.529931, 25.01938]}, "properties": {"type": "cycle", "date": "1070104", "time": "17~19", "address": "臺北市中正區羅斯福路三段241 - 270號"}}, {"type": "Feature", "geometry": {"type": "Point", "coordinates": [121.528155, 25.10642]}, "properties": {"type": "cycle", "date": "1070104", "time": "14~16", "address": "臺北市士林區忠誠里德行東路90巷27弄1 - 30號"}}, {"type": "Feature", "geometry": {"type": "Point", "coordinates": [121.508235, 25.028729]}, "properties": {"type": "cycle", "date": "1070105", "time": "20~22", "address": "臺北市中正區南海路91 - 120號"}}, {"type": "Feature", "geometry": {"type": "Point", "coordinates": [121.544508, 25.063174]}, "properties": {"type": "cycle", "date": "1070105", "time": "05~07", "address": "臺北市松山區復興北路421 - 450號"}}, {"type": "Feature", "geometry": {"type": "Point", "coordinates": [121.533186, 25.038509]}, "properties": {"type": "cycle", "date": "1070106", "time": "05~07", "address": "臺北市大安區仁愛路3段1 - 30號"}}, {"type": "Feature", "geometry": {"type": "Point", "coordinates": [121.525971, 25.040459]}, "properties": {"type": "cycle", "date": "1070106", "time": "02~04", "address": "臺北市中正區杭州南路一段61 - 90號"}}, {"type": "Feature", "geometry": {"type": "Point", "coordinates": [121.530209, 25.095222]}, "properties": {"type": "cycle", "date": "1070106", "time": "20~22", "address": "臺北市士林區福林路31 - 60號"}}, {"type": "Feature", "geometry": {"type": "Point", "coordinates": [121.568255, 25.042913]}, "properties": {"type": "cycle", "date": "1070107", "time": "08~10", "address": "臺北市信義區興雅里13鄰永吉路30巷148弄1 - 30號"}}, {"type": "Feature", "geometry": {"type": "Point", "coordinates": [121.533122, 25.039035]}, "properties": {"type": "cycle", "date": "1070109", "time": "02~04", "address": "臺北市中正區新生南路一段121 - 150號"}}, {"type": "Feature", "geometry": {"type": "Point", "coordinates": [121.519827, 25.092857]}, "properties": {"type": "cycle", "date": "1070109", "time": "14~16", "address": "臺北市士林區名山里13鄰忠誠路路一段121 - 150號"}}, {"type": "Feature", "geometry": {"type": "Point", "coordinates": [121.516165, 25.068713]}, "properties": {"type": "cycle", "date": "1070109", "time": "20~22", "address": "臺北市大同區民族西路151 - 180號"}}, {"type": "Feature", "geometry": {"type": "Point", "coordinates": [121.51946, 25.04604]}, "properties": {"type": "cycle", "date": "1070110", "time": "14~16", "address": "臺北市中正區逸仙公園旁無名巷"}}, {"type": "Feature", "geometry": {"type": "Point", "coordinates": [121.515961, 25.071798]}, "properties": {"type": "cycle", "date": "1070110", "time": "11~13", "address": "臺北市大同區大龍街271 - 300號"}}, {"type": "Feature", "geometry": {"type": "Point", "coordinates": [121.490654, 25.031409]}, "properties": {"type": "cycle", "date": "1070110", "time": "17~19", "address": "臺北市萬華區長順街雙園平面停車場"}}, {"type": "Feature", "geometry": {"type": "Point", "coordinates": [121.507655, 25.048483]}, "properties": {"type": "cycle", "date": "1070110", "time": "02~04", "address": "臺北市萬華區西寧南路1 - 30號"}}, {"type": "Feature", "geometry": {"type": "Point", "coordinates": [121.505786, 25.04435]}, "properties": {"type": "cycle", "date": "1070110", "time": "02~04", "address": "臺北市萬華區西寧南路50巷"}}, {"type": "Feature", "geometry": {"type": "Point", "coordinates": [121.55804, 25.059001]}, "properties": {"type": "cycle", "date": "1070110", "time": "08~10", "address": "臺北市松山區民生東路5段69巷1弄1 - 30號"}}, {"type": "Feature", "geometry": {"type": "Point", "coordinates": [121.516144, 25.041431]}, "properties": {"type": "cycle", "date": "1070111", "time": "05~07", "address": "臺北市中正區公園路上"}}, {"type": "Feature", "geometry": {"type": "Point", "coordinates": [121.53312, 25.109452]}, "properties": {"type": "cycle", "date": "1070111", "time": "05~07", "address": "臺北市士林區德行東路229巷內近士東路口"}}, {"type": "Feature", "geometry": {"type": "Point", "coordinates": [121.506095, 25.040852]}, "properties": {"type": "cycle", "date": "1070111", "time": "23~01", "address": "臺北市萬華區西寧南路211 - 240號"}}, {"type": "Feature", "geometry": {"type": "Point", "coordinates": [121.541252, 24.994957]}, "properties": {"type": "cycle", "date": "1070113", "time": "05~07", "address": "臺北市羅斯福路六段與景華街口"}}, {"type": "Feature", "geometry": {"type": "Point", "coordinates": [121.519827, 25.092857]}, "properties": {"type": "cycle", "date": "1070113", "time": "17~19", "address": "臺北市士林區三玉里10鄰忠誠路91 - 120號"}}, {"type": "Feature", "geometry": {"type": "Point", "coordinates": [121.504084, 25.030548]}, "properties": {"type": "cycle", "date": "1070113", "time": "23~01", "address": "臺北市萬華區中華路二段661 - 690號"}}, {"type": "Feature", "geometry": {"type": "Point", "coordinates": [121.500152, 25.025326]}, "properties": {"type": "cycle", "date": "1070113", "time": "11~13", "address": "臺北市萬華區全德里德昌街1 - 30號"}}, {"type": "Feature", "geometry": {"type": "Point", "coordinates": [121.503742, 25.029758]}, "properties": {"type": "cycle", "date": "1070113", "time": "20~22", "address": "臺北市萬華區中華路二段300巷13弄1 - 30號"}}, {"type": "Feature", "geometry": {"type": "Point", "coordinates": [121.500472, 25.029359]}, "properties": {"type": "cycle", "date": "1070113", "time": "17~19", "address": "臺北市萬華區萬大路與西藏路口"}}, {"type": "Feature", "geometry": {"type": "Point", "coordinates": [121.529437, 25.062808]}, "properties": {"type": "cycle", "date": "1070115", "time": "17~19", "address": "臺北市中山區民權東路2段31 - 60號"}}, {"type": "Feature", "geometry": {"type": "Point", "coordinates": [121.559436, 24.992573]}, "properties": {"type": "cycle", "date": "1070115", "time": "23~01", "address": "臺北市文山區興隆路三段255巷1 - 30號"}}, {"type": "Feature", "geometry": {"type": "Point", "coordinates": [121.617857, 25.072855]}, "properties": {"type": "cycle", "date": "1070115", "time": "05~07", "address": "臺北市內湖區康樂街136巷29弄31 - 60號"}}, {"type": "Feature", "geometry": {"type": "Point", "coordinates": [121.496039, 25.017113]}, "properties": {"type": "cycle", "date": "1070117", "time": "20~22", "address": "臺北市萬華區萬大路路541 - 570號"}}, {"type": "Feature", "geometry": {"type": "Point", "coordinates": [121.512759, 25.072481]}, "properties": {"type": "cycle", "date": "1070118", "time": "17~19", "address": "臺北市大同區老師里6鄰迪化街二段271 - 300號"}}, {"type": "Feature", "geometry": {"type": "Point", "coordinates": [121.51636, 25.058754]}, "properties": {"type": "cycle", "date": "1070118", "time": "17~19", "address": "臺北市大同區歸綏街91 - 120號"}}, {"type": "Feature", "geometry": {"type": "Point", "coordinates": [121.546339, 25.000117]}, "properties": {"type": "cycle", "date": "1070119", "time": "11~13", "address": "臺北市文山區興豐里16鄰景豐街48巷1 - 30號"}}, {"type": "Feature", "geometry": {"type": "Point", "coordinates": [121.503949, 25.136253]}, "properties": {"type": "cycle", "date": "1070120", "time": "17~19", "address": "臺北市北投區光明路211 - 240號"}}, {"type": "Feature", "geometry": {"type": "Point", "coordinates": [121.559313, 25.03189]}, "properties": {"type": "cycle", "date": "1070120", "time": "23~01", "address": "臺北市信義區吳興街一帶"}}, {"type": "Feature", "geometry": {"type": "Point", "coordinates": [121.595943, 25.055407]}, "properties": {"type": "cycle", "date": "1070121", "time": "11~13", "address": "臺北市南港區重陽路1 - 30號"}}, {"type": "Feature", "geometry": {"type": "Point", "coordinates": [121.514395, 25.054969]}, "properties": {"type": "cycle", "date": "1070121", "time": "20~22", "address": "臺北市大同區重慶北路2段31 - 60號"}}, {"type": "Feature", "geometry": {"type": "Point", "coordinates": [121.541017, 24.989488]}, "properties": {"type": "cycle", "date": "1070122", "time": "11~13", "address": "臺北市文山區景文街151 - 180號"}}, {"type": "Feature", "geometry": {"type": "Point", "coordinates": [121.511931, 25.024031]}, "properties": {"type": "cycle", "date": "1070122", "time": "17~19", "address": "臺北市萬華區水源路181 - 210號"}}, {"type": "Feature", "geometry": {"type": "Point", "coordinates": [121.50379, 25.037115]}, "properties": {"type": "cycle", "date": "1070122", "time": "08~10", "address": "臺北市萬華區昆明街271 - 300號"}}, {"type": "Feature", "geometry": {"type": "Point", "coordinates": [121.55362, 25.084135]}, "properties": {"type": "cycle", "date": "1070124", "time": "11~13", "address": "臺北市中山區敬業一路181 - 210號"}}, {"type": "Feature", "geometry": {"type": "Point", "coordinates": [121.569038, 25.043229]}, "properties": {"type": "cycle", "date": "1070125", "time": "02~04", "address": "臺北市信義區永吉路30巷119弄1 - 30號"}}, {"type": "Feature", "geometry": {"type": "Point", "coordinates": [121.561034, 25.035863]}, "properties": {"type": "cycle", "date": "1070125", "time": "14~16", "address": "臺北市信義區基隆路1段331 - 360號"}}, {"type": "Feature", "geometry": {"type": "Point", "coordinates": [121.54968, 25.055484]}, "properties": {"type": "cycle", "date": "1070125", "time": "11~13", "address": "臺北市松山區敦化北路199巷1 - 30號"}}, {"type": "Feature", "geometry": {"type": "Point", "coordinates": [121.520221, 25.04932]}, "properties": {"type": "cycle", "date": "1070126", "time": "17~19", "address": "臺北市中山區長安西路40巷10弄1 - 30號"}}, {"type": "Feature", "geometry": {"type": "Point", "coordinates": [121.555274, 25.029038]}, "properties": {"type": "cycle", "date": "1070126", "time": "17~19", "address": "臺北市大安區通化街123巷31 - 60號"}}, {"type": "Feature", "geometry": {"type": "Point", "coordinates": [121.518464, 25.041931]}, "properties": {"type": "cycle", "date": "1070126", "time": "08~10", "address": "臺北市中正區中山南路與徐州路口旁的機車停車格"}}, {"type": "Feature", "geometry": {"type": "Point", "coordinates": [121.537169, 25.052424]}, "properties": {"type": "cycle", "date": "1070128", "time": "08~10", "address": "臺北市中山區建國北路2段3巷1 - 30號"}}, {"type": "Feature", "geometry": {"type": "Point", "coordinates": [121.5033, 25.026038]}, "properties": {"type": "cycle", "date": "1070130", "time": "08~10", "address": "臺北市萬華區西藏路125巷31 - 60號"}}, {"type": "Feature", "geometry": {"type": "Point", "coordinates": [121.520429, 25.05197]}, "properties": {"type": "cycle", "date": "1070131", "time": "02~04", "address": "臺北市中山區長安西路19巷2弄"}}, {"type": "Feature", "geometry": {"type": "Point", "coordinates": [121.501743, 25.038348]}, "properties": {"type": "cycle", "date": "1070131", "time": "02~04", "address": "臺北市萬華區桂林路與康定路"}}, {"type": "Feature", "geometry": {"type": "Point", "coordinates": [121.50943, 25.112736]}, "properties": {"type": "cycle", "date": "1070201", "time": "17~19", "address": "臺北市北投區石牌路1段1 - 30號"}}, {"type": "Feature", "geometry": {"type": "Point", "coordinates": [121.578439, 25.047123]}, "properties": {"type": "cycle", "date": "1070201", "time": "14~16", "address": "臺北市信義區永吉路443巷13弄1 - 30號"}}, {"type": "Feature", "geometry": {"type": "Point", "coordinates": [121.533297, 25.016265]}, "properties": {"type": "cycle", "date": "1070201", "time": "02~04", "address": "臺北市大安區羅斯福路四段一號"}}, {"type": "Feature", "geometry": {"type": "Point", "coordinates": [121.5227, 25.048586]}, "properties": {"type": "cycle", "date": "1070202", "time": "20~22", "address": "臺北市中山區中山北路一段33巷"}}, {"type": "Feature", "geometry": {"type": "Point", "coordinates": [121.525592, 25.055158]}, "properties": {"type": "cycle", "date": "1070202", "time": "11~13", "address": "臺北市中山區林森北路271 - 300號"}}, {"type": "Feature", "geometry": {"type": "Point", "coordinates": [121.585379, 25.035583]}, "properties": {"type": "cycle", "date": "1070202", "time": "23~01", "address": "臺北市信義區福德街221巷3弄"}}, {"type": "Feature", "geometry": {"type": "Point", "coordinates": [121.562541, 25.048789]}, "properties": {"type": "cycle", "date": "1070202", "time": "02~04", "address": "臺北市松山區八德路四段151 - 180號"}}, {"type": "Feature", "geometry": {"type": "Point", "coordinates": [121.522987, 25.049017]}, "properties": {"type": "cycle", "date": "1070203", "time": "23~01", "address": "臺北市中山區中山北路一段53巷"}}, {"type": "Feature", "geometry": {"type": "Point", "coordinates": [121.524891, 25.101977]}, "properties": {"type": "cycle", "date": "1070204", "time": "02~04", "address": "臺北市士林區德華里福國路91 - 120號"}}, {"type": "Feature", "geometry": {"type": "Point", "coordinates": [121.533177, 25.047384]}, "properties": {"type": "cycle", "date": "1070205", "time": "05~07", "address": "臺北市中山區松江路31 - 60號"}}, {"type": "Feature", "geometry": {"type": "Point", "coordinates": [121.521365, 25.050005]}, "properties": {"type": "cycle", "date": "1070205", "time": "05~07", "address": "臺北市中山區長安西路1 - 30號"}}, {"type": "Feature", "geometry": {"type": "Point", "coordinates": [121.512855, 25.110296]}, "properties": {"type": "cycle", "date": "1070206", "time": "20~22", "address": "臺北市北投區自強街31 - 60號"}}, {"type": "Feature", "geometry": {"type": "Point", "coordinates": [121.496898, 25.030983]}, "properties": {"type": "cycle", "date": "1070206", "time": "08~10", "address": "臺北市萬華區西園路二段61 - 90號"}}, {"type": "Feature", "geometry": {"type": "Point", "coordinates": [121.511805, 25.037184]}, "properties": {"type": "cycle", "date": "1070207", "time": "05~07", "address": "臺北市中正區重慶南路一段126巷"}}, {"type": "Feature", "geometry": {"type": "Point", "coordinates": [121.614017, 25.060419]}, "properties": {"type": "cycle", "date": "1070207", "time": "20~22", "address": "臺北市南港區三重路61 - 90號"}}, {"type": "Feature", "geometry": {"type": "Point", "coordinates": [121.511764, 25.111732]}, "properties": {"type": "cycle", "date": "1070208", "time": "17~19", "address": "臺北市北投區自強街31巷61 - 90號"}}, {"type": "Feature", "geometry": {"type": "Point", "coordinates": [121.500077, 25.040817]}, "properties": {"type": "cycle", "date": "1070208", "time": "17~19", "address": "臺北市萬華區西園路一段31 - 60號"}}, {"type": "Feature", "geometry": {"type": "Point", "coordinates": [121.553728, 25.027892]}, "properties": {"type": "cycle", "date": "1070209", "time": "20~22", "address": "臺北市大安區通化街173巷1 - 30號"}}, {"type": "Feature", "geometry": {"type": "Point", "coordinates": [121.543464, 25.036018]}, "properties": {"type": "cycle", "date": "1070209", "time": "23~01", "address": "臺北市大安區復興南路1段340巷1 - 30號"}}, {"type": "Feature", "geometry": {"type": "Point", "coordinates": [121.484416, 25.134552]}, "properties": {"type": "cycle", "date": "1070209", "time": "05~07", "address": "臺北市北投區大業路527巷61 - 90號"}}, {"type": "Feature", "geometry": {"type": "Point", "coordinates": [121.505068, 25.08864]}, "properties": {"type": "cycle", "date": "1070209", "time": "14~16", "address": "臺北市士林區社子街125巷1 - 30號"}}, {"type": "Feature", "geometry": {"type": "Point", "coordinates": [121.548603, 25.04691]}, "properties": {"type": "cycle", "date": "1070209", "time": "23~01", "address": "臺北市松山區敦化南路一段80巷內"}}, {"type": "Feature", "geometry": {"type": "Point", "coordinates": [121.517285, 25.050974]}, "properties": {"type": "cycle", "date": "1070209", "time": "05~07", "address": "臺北市大同區承德路一段31 - 60號"}}, {"type": "Feature", "geometry": {"type": "Point", "coordinates": [121.516007, 25.067228]}, "properties": {"type": "cycle", "date": "1070209", "time": "08~10", "address": "臺北市大同區大龍街121 - 150號"}}, {"type": "Feature", "geometry": {"type": "Point", "coordinates": [121.546321, 25.042758]}, "properties": {"type": "cycle", "date": "1070210", "time": "02~04", "address": "臺北市大安區大安路1段61 - 90號"}}, {"type": "Feature", "geometry": {"type": "Point", "coordinates": [121.516167, 25.116166]}, "properties": {"type": "cycle", "date": "1070210", "time": "20~22", "address": "臺北市北投區裕民三路1 - 30號"}}, {"type": "Feature", "geometry": {"type": "Point", "coordinates": [121.500364, 25.02402]}, "properties": {"type": "cycle", "date": "1070210", "time": "05~07", "address": "臺北市萬華區萬大路331 - 360號"}}, {"type": "Feature", "geometry": {"type": "Point", "coordinates": [121.496384, 25.019973]}, "properties": {"type": "cycle", "date": "1070211", "time": "14~16", "address": "臺北市萬華區萬大路486巷37弄1 - 30號"}}, {"type": "Feature", "geometry": {"type": "Point", "coordinates": [121.524715, 25.024176]}, "properties": {"type": "cycle", "date": "1070212", "time": "14~16", "address": "臺北市大安區羅斯福路三段一帶"}}, {"type": "Feature", "geometry": {"type": "Point", "coordinates": [121.547826, 25.012398]}, "properties": {"type": "cycle", "date": "1070213", "time": "17~19", "address": "臺北市大安區基隆路三段155巷一帶"}}, {"type": "Feature", "geometry": {"type": "Point", "coordinates": [121.546125, 25.044735]}, "properties": {"type": "cycle", "date": "1070213", "time": "02~04", "address": "臺北市大安區大安路一段6之1 - 30號"}}, {"type": "Feature", "geometry": {"type": "Point", "coordinates": [121.514288, 25.046436]}, "properties": {"type": "cycle", "date": "1070213", "time": "02~04", "address": "臺北市中正區懷寧街1 - 30號"}}, {"type": "Feature", "geometry": {"type": "Point", "coordinates": [121.522034, 25.084647]}, "properties": {"type": "cycle", "date": "1070213", "time": "08~10", "address": "臺北市士林區百齡里18鄰前港街91 - 120號"}}, {"type": "Feature", "geometry": {"type": "Point", "coordinates": [121.532411, 25.046328]}, "properties": {"type": "cycle", "date": "1070214", "time": "11~13", "address": "臺北市中山區新生北路一段91 - 120號"}}, {"type": "Feature", "geometry": {"type": "Point", "coordinates": [121.532909, 25.054857]}, "properties": {"type": "cycle", "date": "1070214", "time": "08~10", "address": "臺北市中山區長春路151 - 180號"}}, {"type": "Feature", "geometry": {"type": "Point", "coordinates": [121.53256, 25.061131]}, "properties": {"type": "cycle", "date": "1070214", "time": "17~19", "address": "臺北市中山區錦州街231巷內"}}, {"type": "Feature", "geometry": {"type": "Point", "coordinates": [121.530445, 25.114506]}, "properties": {"type": "cycle", "date": "1070214", "time": "08~10", "address": "臺北市士林區天祿里天母東路8巷91 - 120號"}}, {"type": "Feature", "geometry": {"type": "Point", "coordinates": [121.533628, 25.064251]}, "properties": {"type": "cycle", "date": "1070215", "time": "05~07", "address": "臺北市中山區建國北路75巷1 - 30號"}}, {"type": "Feature", "geometry": {"type": "Point", "coordinates": [121.509607, 25.024922]}, "properties": {"type": "cycle", "date": "1070218", "time": "23~01", "address": "臺北市中正區中華路2段451 - 480號"}}, {"type": "Feature", "geometry": {"type": "Point", "coordinates": [121.499891, 25.034887]}, "properties": {"type": "cycle", "date": "1070218", "time": "08~10", "address": "臺北市萬華區峨嵋街61 - 90號"}}, {"type": "Feature", "geometry": {"type": "Point", "coordinates": [121.50465, 25.042012]}, "properties": {"type": "cycle", "date": "1070218", "time": "17~19", "address": "臺北市萬華區昆明街"}}, {"type": "Feature", "geometry": {"type": "Point", "coordinates": [121.52227, 25.050629]}, "properties": {"type": "cycle", "date": "1070220", "time": "14~16", "address": "臺北市中山區中山北路一段91 - 120號"}}, {"type": "Feature", "geometry": {"type": "Point", "coordinates": [121.510231, 25.079581]}, "properties": {"type": "cycle", "date": "1070220", "time": "02~04", "address": "臺北市士林區富光里6鄰葫蘆街11巷1 - 30號"}}, {"type": "Feature", "geometry": {"type": "Point", "coordinates": [121.520801, 25.096746]}, "properties": {"type": "cycle", "date": "1070221", "time": "23~01", "address": "臺北市士林區文昌路91 - 120號"}}, {"type": "Feature", "geometry": {"type": "Point", "coordinates": [121.517052, 25.055128]}, "properties": {"type": "cycle", "date": "1070221", "time": "02~04", "address": "臺北市大同區平陽街31 - 60號"}}, {"type": "Feature", "geometry": {"type": "Point", "coordinates": [121.565558, 25.050644]}, "properties": {"type": "cycle", "date": "1070222", "time": "23~01", "address": "臺北市松山區東興路1 - 30號"}}, {"type": "Feature", "geometry": {"type": "Point", "coordinates": [121.515366, 25.066056]}, "properties": {"type": "cycle", "date": "1070222", "time": "14~16", "address": "臺北市大同區環河東路2段與敦環路口"}}, {"type": "Feature", "geometry": {"type": "Point", "coordinates": [121.502739, 25.023612]}, "properties": {"type": "cycle", "date": "1070222", "time": "20~22", "address": "臺北市萬華區青年路路"}}, {"type": "Feature", "geometry": {"type": "Point", "coordinates": [121.502676, 25.035302]}, "properties": {"type": "cycle", "date": "1070222", "time": "05~07", "address": "臺北市臺北市萬華區和平西路三段51巷、三水街口"}}, {"type": "Feature", "geometry": {"type": "Point", "coordinates": [121.580657, 25.045323]}, "properties": {"type": "cycle", "date": "1070223", "time": "14~16", "address": "臺北市信義區永吉路一帶"}}, {"type": "Feature", "geometry": {"type": "Point", "coordinates": [121.505006, 25.043465]}, "properties": {"type": "cycle", "date": "1070223", "time": "20~22", "address": "臺北市萬華區昆明街61 - 90號"}}, {"type": "Feature", "geometry": {"type": "Point", "coordinates": [121.501997, 25.118868]}, "properties": {"type": "cycle", "date": "1070224", "time": "20~22", "address": "臺北市北投區承德路七段361 - 390號"}}, {"type": "Feature", "geometry": {"type": "Point", "coordinates": [121.510679, 25.065995]}, "properties": {"type": "cycle", "date": "1070224", "time": "14~16", "address": "臺北市大同區昌吉街121 - 150號"}}, {"type": "Feature", "geometry": {"type": "Point", "coordinates": [121.533479, 25.049014]}, "properties": {"type": "cycle", "date": "1070225", "time": "17~19", "address": "臺北市中山區松江路63巷1 - 30號"}}, {"type": "Feature", "geometry": {"type": "Point", "coordinates": [121.552311, 25.000603]}, "properties": {"type": "cycle", "date": "1070225", "time": "17~19", "address": "臺北市文山區興業里8鄰興隆路2段220巷31 - 60號"}}, {"type": "Feature", "geometry": {"type": "Point", "coordinates": [121.583164, 25.056423]}, "properties": {"type": "cycle", "date": "1070225", "time": "17~19", "address": "臺北市內湖區新明路351巷和新明路口"}}, {"type": "Feature", "geometry": {"type": "Point", "coordinates": [121.500589, 25.036584]}, "properties": {"type": "cycle", "date": "1070225", "time": "20~22", "address": "臺北市萬華區廣州街152巷1 - 30號"}}, {"type": "Feature", "geometry": {"type": "Point", "coordinates": [121.533842, 25.045667]}, "properties": {"type": "cycle", "date": "1070226", "time": "08~10", "address": "臺北市中山區八德路與渭水路口"}}, {"type": "Feature", "geometry": {"type": "Point", "coordinates": [121.544322, 25.054747]}, "properties": {"type": "cycle", "date": "1070226", "time": "08~10", "address": "臺北市松山區民有里復興北路181 - 210號"}}, {"type": "Feature", "geometry": {"type": "Point", "coordinates": [121.497592, 25.03803]}, "properties": {"type": "cycle", "date": "1070226", "time": "17~19", "address": "臺北市萬華區梧州街12巷內"}}, {"type": "Feature", "geometry": {"type": "Point", "coordinates": [121.566186, 25.03831]}, "properties": {"type": "cycle", "date": "1070228", "time": "17~19", "address": "臺北市環河南路及環河北路沿線"}}, {"type": "Feature", "geometry": {"type": "Point", "coordinates": [121.578631, 25.080615]}, "properties": {"type": "cycle", "date": "1070301", "time": "14~16", "address": "臺北市內湖路一段737巷50弄31 - 60號"}}, {"type": "Feature", "geometry": {"type": "Point", "coordinates": [121.501207, 25.131706]}, "properties": {"type": "cycle", "date": "1070301", "time": "08~10", "address": "臺北市北投區中正街1 - 30號"}}, {"type": "Feature", "geometry": {"type": "Point", "coordinates": [121.57361, 25.040485]}, "properties": {"type": "cycle", "date": "1070301", "time": "23~01", "address": "臺北市信義區忠孝東路5段236巷3弄31 - 60號"}}, {"type": "Feature", "geometry": {"type": "Point", "coordinates": [121.500654, 25.132569]}, "properties": {"type": "cycle", "date": "1070301", "time": "14~16", "address": "臺北市北投區光明路72巷31 - 60號"}}, {"type": "Feature", "geometry": {"type": "Point", "coordinates": [121.539427, 25.012811]}, "properties": {"type": "cycle", "date": "1070302", "time": "05~07", "address": "臺北市大安區基隆路四段73巷內機"}}, {"type": "Feature", "geometry": {"type": "Point", "coordinates": [121.514288, 25.046436]}, "properties": {"type": "cycle", "date": "1070302", "time": "08~10", "address": "臺北市中正區懷寧街1 - 30號"}}, {"type": "Feature", "geometry": {"type": "Point", "coordinates": [121.562402, 24.987952]}, "properties": {"type": "cycle", "date": "1070302", "time": "05~07", "address": "臺北市文山區興隆路4段105巷31 - 60號"}}, {"type": "Feature", "geometry": {"type": "Point", "coordinates": [121.52317, 25.055155]}, "properties": {"type": "cycle", "date": "1070303", "time": "11~13", "address": "臺北市中山區長春路1 - 30號"}}, {"type": "Feature", "geometry": {"type": "Point", "coordinates": [121.608728, 25.07165]}, "properties": {"type": "cycle", "date": "1070303", "time": "17~19", "address": "臺北市內湖區康寧路三段54巷1 - 30號"}}, {"type": "Feature", "geometry": {"type": "Point", "coordinates": [121.513574, 25.050641]}, "properties": {"type": "cycle", "date": "1070303", "time": "14~16", "address": "臺北市大同區重慶北路一段與華陰街口"}}, {"type": "Feature", "geometry": {"type": "Point", "coordinates": [121.533161, 25.040278]}, "properties": {"type": "cycle", "date": "1070304", "time": "08~10", "address": "臺北市大安區濟南路3段1 - 30號"}}, {"type": "Feature", "geometry": {"type": "Point", "coordinates": [121.50116, 25.133802]}, "properties": {"type": "cycle", "date": "1070304", "time": "08~10", "address": "臺北市北投區中央北路1段61 - 90號"}}, {"type": "Feature", "geometry": {"type": "Point", "coordinates": [121.556155, 25.099672]}, "properties": {"type": "cycle", "date": "1070304", "time": "11~13", "address": "臺北市士林區劍南路211 - 240號"}}, {"type": "Feature", "geometry": {"type": "Point", "coordinates": [121.506048, 25.043147]}, "properties": {"type": "cycle", "date": "1070304", "time": "20~22", "address": "臺北市萬華區西寧南路附近"}}, {"type": "Feature", "geometry": {"type": "Point", "coordinates": [121.521732, 25.057894]}, "properties": {"type": "cycle", "date": "1070305", "time": "17~19", "address": "臺北市中山區民生西路3巷內"}}, {"type": "Feature", "geometry": {"type": "Point", "coordinates": [121.498683, 25.141064]}, "properties": {"type": "cycle", "date": "1070305", "time": "23~01", "address": "臺北市北投區智仁里7鄰杏林二路1 - 30號"}}, {"type": "Feature", "geometry": {"type": "Point", "coordinates": [121.53072, 25.060432]}, "properties": {"type": "cycle", "date": "1070306", "time": "20~22", "address": "臺北市中山區錦州街175巷1 - 30號"}}, {"type": "Feature", "geometry": {"type": "Point", "coordinates": [121.620705, 25.039773]}, "properties": {"type": "cycle", "date": "1070306", "time": "17~19", "address": "臺北市南港區舊莊街1段151 - 180號"}}, {"type": "Feature", "geometry": {"type": "Point", "coordinates": [121.507403, 25.114644]}, "properties": {"type": "cycle", "date": "1070306", "time": "08~10", "address": "臺北市北投區實踐街1 - 30號"}}, {"type": "Feature", "geometry": {"type": "Point", "coordinates": [121.579112, 25.051498]}, "properties": {"type": "cycle", "date": "1070306", "time": "17~19", "address": "臺北市松山區八德路四段819巷內"}}, {"type": "Feature", "geometry": {"type": "Point", "coordinates": [121.518235, 25.032414]}, "properties": {"type": "cycle", "date": "1070307", "time": "08~10", "address": "臺北市中正區忠孝西路與重慶北路"}}, {"type": "Feature", "geometry": {"type": "Point", "coordinates": [121.491174, 25.024098]}, "properties": {"type": "cycle", "date": "1070308", "time": "02~04", "address": "臺北市萬華區環河南路3段121 - 150號"}}, {"type": "Feature", "geometry": {"type": "Point", "coordinates": [121.523763, 25.060397]}, "properties": {"type": "cycle", "date": "1070310", "time": "14~16", "address": "臺北市中山區錦州街1 - 30號"}}, {"type": "Feature", "geometry": {"type": "Point", "coordinates": [121.532909, 25.054857]}, "properties": {"type": "cycle", "date": "1070310", "time": "14~16", "address": "臺北市中山區長春路151 - 180號"}}, {"type": "Feature", "geometry": {"type": "Point", "coordinates": [121.566377, 25.043549]}, "properties": {"type": "cycle", "date": "1070310", "time": "05~07", "address": "臺北市信義區松隆路一帶"}}, {"type": "Feature", "geometry": {"type": "Point", "coordinates": [121.501478, 25.029377]}, "properties": {"type": "cycle", "date": "1070310", "time": "20~22", "address": "臺北市萬華區西藏路151 - 180號"}}, {"type": "Feature", "geometry": {"type": "Point", "coordinates": [121.501379, 25.119496]}, "properties": {"type": "cycle", "date": "1070311", "time": "17~19", "address": "臺北市承德路七段與公館路口旁人行道機車格"}}, {"type": "Feature", "geometry": {"type": "Point", "coordinates": [121.518635, 25.109614]}, "properties": {"type": "cycle", "date": "1070313", "time": "23~01", "address": "臺北市北投區西安街一段與西安街一段165巷口"}}, {"type": "Feature", "geometry": {"type": "Point", "coordinates": [121.532387, 25.099789]}, "properties": {"type": "cycle", "date": "1070313", "time": "08~10", "address": "臺北市士林區福志里雨農路61 - 90號"}}, {"type": "Feature", "geometry": {"type": "Point", "coordinates": [121.585685, 25.043623]}, "properties": {"type": "cycle", "date": "1070314", "time": "02~04", "address": "臺北市臺北市南港區鴻福里9鄰玉成街231巷1 - 30號"}}, {"type": "Feature", "geometry": {"type": "Point", "coordinates": [121.510068, 25.113027]}, "properties": {"type": "cycle", "date": "1070314", "time": "17~19", "address": "臺北市北投區石牌路一段31 - 60號"}}, {"type": "Feature", "geometry": {"type": "Point", "coordinates": [121.533842, 25.045667]}, "properties": {"type": "cycle", "date": "1070315", "time": "02~04", "address": "臺北市中山區渭水路建國啤酒廠旁"}}, {"type": "Feature", "geometry": {"type": "Point", "coordinates": [121.533165, 25.040826]}, "properties": {"type": "cycle", "date": "1070315", "time": "08~10", "address": "臺北市大安區新生南路一段103巷1 - 30號"}}, {"type": "Feature", "geometry": {"type": "Point", "coordinates": [121.493416, 25.132839]}, "properties": {"type": "cycle", "date": "1070315", "time": "23~01", "address": "臺北市北投區大業路517巷61 - 90號"}}, {"type": "Feature", "geometry": {"type": "Point", "coordinates": [121.532765, 25.056365]}, "properties": {"type": "cycle", "date": "1070316", "time": "11~13", "address": "臺北市中山區松江路184巷內"}}, {"type": "Feature", "geometry": {"type": "Point", "coordinates": [121.544133, 25.040889]}, "properties": {"type": "cycle", "date": "1070316", "time": "23~01", "address": "臺北市大安區復興南路一段177巷口"}}, {"type": "Feature", "geometry": {"type": "Point", "coordinates": [121.511415, 25.108581]}, "properties": {"type": "cycle", "date": "1070317", "time": "05~07", "address": "臺北市北投區承德路六段421 - 450號"}}, {"type": "Feature", "geometry": {"type": "Point", "coordinates": [121.554321, 25.030467]}, "properties": {"type": "cycle", "date": "1070318", "time": "11~13", "address": "臺北市大安區通化街61 - 90號"}}, {"type": "Feature", "geometry": {"type": "Point", "coordinates": [121.515188, 25.055581]}, "properties": {"type": "cycle", "date": "1070318", "time": "02~04", "address": "臺北市大同區寧夏夜市附近"}}, {"type": "Feature", "geometry": {"type": "Point", "coordinates": [121.523472, 25.051401]}, "properties": {"type": "cycle", "date": "1070319", "time": "17~19", "address": "臺北市中山區天津街61 - 90號"}}, {"type": "Feature", "geometry": {"type": "Point", "coordinates": [121.470043, 25.122846]}, "properties": {"type": "cycle", "date": "1070319", "time": "23~01", "address": "臺北市北投區大度路三段91 - 120號"}}, {"type": "Feature", "geometry": {"type": "Point", "coordinates": [121.529888, 25.108783]}, "properties": {"type": "cycle", "date": "1070319", "time": "02~04", "address": "臺北市士林區三玉里忠誠路二段10巷1 - 30號"}}, {"type": "Feature", "geometry": {"type": "Point", "coordinates": [121.521115, 25.062903]}, "properties": {"type": "cycle", "date": "1070319", "time": "17~19", "address": "臺北市民權西路附近"}}, {"type": "Feature", "geometry": {"type": "Point", "coordinates": [121.499891, 25.034887]}, "properties": {"type": "cycle", "date": "1070320", "time": "17~19", "address": "臺北市萬華區堤外便道"}}, {"type": "Feature", "geometry": {"type": "Point", "coordinates": [121.532751, 25.066357]}, "properties": {"type": "cycle", "date": "1070320", "time": "11~13", "address": "臺北市中山區德惠街198巷1 - 30號"}}, {"type": "Feature", "geometry": {"type": "Point", "coordinates": [121.530756, 25.067841]}, "properties": {"type": "cycle", "date": "1070321", "time": "08~10", "address": "臺北市中山區吉林路461巷1 - 30號"}}, {"type": "Feature", "geometry": {"type": "Point", "coordinates": [121.526574, 25.066755]}, "properties": {"type": "cycle", "date": "1070323", "time": "11~13", "address": "臺北市中山區德惠街31 - 60號"}}, {"type": "Feature", "geometry": {"type": "Point", "coordinates": [121.508241, 25.050275]}, "properties": {"type": "cycle", "date": "1070323", "time": "17~19", "address": "臺北市大同區鄭州路38巷內"}}, {"type": "Feature", "geometry": {"type": "Point", "coordinates": [121.52306, 25.084902]}, "properties": {"type": "cycle", "date": "1070325", "time": "02~04", "address": "臺北市士林區百齡里5鄰前港街61 - 90號"}}, {"type": "Feature", "geometry": {"type": "Point", "coordinates": [121.503714, 25.039915]}, "properties": {"type": "cycle", "date": "1070325", "time": "20~22", "address": "臺北市萬華區貴陽街二段91 - 120號"}}, {"type": "Feature", "geometry": {"type": "Point", "coordinates": [121.530518, 25.065578]}, "properties": {"type": "cycle", "date": "1070326", "time": "14~16", "address": "臺北市中山區吉林路391 - 420號"}}, {"type": "Feature", "geometry": {"type": "Point", "coordinates": [121.533177, 25.044206]}, "properties": {"type": "cycle", "date": "1070326", "time": "08~10", "address": "臺北市中正區新生南路1段1 - 30號"}}, {"type": "Feature", "geometry": {"type": "Point", "coordinates": [121.51112, 25.045225]}, "properties": {"type": "cycle", "date": "1070326", "time": "11~13", "address": "臺北市中正區漢口街一段91 - 120號"}}, {"type": "Feature", "geometry": {"type": "Point", "coordinates": [121.512455, 25.054047]}, "properties": {"type": "cycle", "date": "1070326", "time": "14~16", "address": "臺北市大同區南京西路181 - 210號"}}, {"type": "Feature", "geometry": {"type": "Point", "coordinates": [121.53869, 25.033645]}, "properties": {"type": "cycle", "date": "1070327", "time": "11~13", "address": "臺北市大安區信義路3段99巷之口"}}, {"type": "Feature", "geometry": {"type": "Point", "coordinates": [121.498744, 25.021485]}, "properties": {"type": "cycle", "date": "1070328", "time": "11~13", "address": "臺北市萬華區萬大路421 - 450號"}}, {"type": "Feature", "geometry": {"type": "Point", "coordinates": [121.502093, 25.039793]}, "properties": {"type": "cycle", "date": "1070328", "time": "17~19", "address": "臺北市萬華區康定路91 - 120號"}}, {"type": "Feature", "geometry": {"type": "Point", "coordinates": [121.527539, 25.032277]}, "properties": {"type": "cycle", "date": "1070329", "time": "14~16", "address": "臺北市大安區永康里愛國東路79巷"}}, {"type": "Feature", "geometry": {"type": "Point", "coordinates": [121.518525, 25.08408]}, "properties": {"type": "cycle", "date": "1070329", "time": "08~10", "address": "臺北市士林區百齡里15鄰福港街259巷9弄內"}}, {"type": "Feature", "geometry": {"type": "Point", "coordinates": [121.505255, 25.047824]}, "properties": {"type": "cycle", "date": "1070329", "time": "02~04", "address": "臺北市環河南路1段1 - 30號"}}, {"type": "Feature", "geometry": {"type": "Point", "coordinates": [121.544866, 25.060497]}, "properties": {"type": "cycle", "date": "1070330", "time": "23~01", "address": "臺北市松山區民權東路3段106巷"}}, {"type": "Feature", "geometry": {"type": "Point", "coordinates": [121.533628, 25.064251]}, "properties": {"type": "cycle", "date": "1070331", "time": "20~22", "address": "臺北市中山區新生北路與南京東路口"}}, {"type": "Feature", "geometry": {"type": "Point", "coordinates": [121.543809, 25.039168]}, "properties": {"type": "cycle", "date": "1070331", "time": "14~16", "address": "臺北市大安區復興南路1段"}}, {"type": "Feature", "geometry": {"type": "Point", "coordinates": [121.533905, 25.06307]}, "properties": {"type": "cycle", "date": "1070401", "time": "20~22", "address": "臺北市行天宮附近"}}, {"type": "Feature", "geometry": {"type": "Point", "coordinates": [121.501478, 25.029377]}, "properties": {"type": "cycle", "date": "1070401", "time": "14~16", "address": "臺北市萬華區西藏路151 - 180號"}}, {"type": "Feature", "geometry": {"type": "Point", "coordinates": [121.611236, 25.060088]}, "properties": {"type": "cycle", "date": "1070401", "time": "20~22", "address": "臺北市南港區重陽路481 - 510號"}}, {"type": "Feature", "geometry": {"type": "Point", "coordinates": [121.518249, 25.118625]}, "properties": {"type": "cycle", "date": "1070402", "time": "05~07", "address": "臺北市北投區石牌路二段181 - 210號"}}, {"type": "Feature", "geometry": {"type": "Point", "coordinates": [121.506592, 25.14073]}, "properties": {"type": "cycle", "date": "1070402", "time": "11~13", "address": "臺北市北投區泉源路1 - 30號"}}, {"type": "Feature", "geometry": {"type": "Point", "coordinates": [121.530454, 25.064892]}, "properties": {"type": "cycle", "date": "1070403", "time": "02~04", "address": "臺北市中山區吉林路路361 - 390號"}}, {"type": "Feature", "geometry": {"type": "Point", "coordinates": [121.515743, 25.110831]}, "properties": {"type": "cycle", "date": "1070403", "time": "02~04", "address": "臺北市北投區自強街120巷1 - 30號"}}, {"type": "Feature", "geometry": {"type": "Point", "coordinates": [121.506168, 25.040771]}, "properties": {"type": "cycle", "date": "1070403", "time": "20~22", "address": "臺北市萬華區長沙街2段31 - 60號"}}, {"type": "Feature", "geometry": {"type": "Point", "coordinates": [121.50426, 25.03948]}, "properties": {"type": "cycle", "date": "1070405", "time": "14~16", "address": "臺北市萬華區昆明街181 - 210號"}}, {"type": "Feature", "geometry": {"type": "Point", "coordinates": [121.54929, 25.04188]}, "properties": {"type": "cycle", "date": "1070406", "time": "11~13", "address": "臺北市大安區敦化南路一段211 - 240號"}}, {"type": "Feature", "geometry": {"type": "Point", "coordinates": [121.550588, 25.026325]}, "properties": {"type": "cycle", "date": "1070406", "time": "02~04", "address": "臺北市大安區安和路二段209巷口"}}, {"type": "Feature", "geometry": {"type": "Point", "coordinates": [121.595471, 25.0787]}, "properties": {"type": "cycle", "date": "1070406", "time": "02~04", "address": "臺北市內湖區康寧路一段173巷1 - 30號"}}, {"type": "Feature", "geometry": {"type": "Point", "coordinates": [121.51578, 25.063668]}, "properties": {"type": "cycle", "date": "1070406", "time": "11~13", "address": "臺北市大同區大龍街22巷1 - 30號"}}, {"type": "Feature", "geometry": {"type": "Point", "coordinates": [121.584006, 25.077017]}, "properties": {"type": "cycle", "date": "1070408", "time": "20~22", "address": "臺北市內湖區文德路210巷30弄1 - 30號"}}, {"type": "Feature", "geometry": {"type": "Point", "coordinates": [121.524514, 25.102417]}, "properties": {"type": "cycle", "date": "1070408", "time": "05~07", "address": "臺北市北投區承德路六段、福國路口"}}, {"type": "Feature", "geometry": {"type": "Point", "coordinates": [121.539107, 25.053668]}, "properties": {"type": "cycle", "date": "1070409", "time": "14~16", "address": "臺北市中山區長春路258巷31 - 60號"}}, {"type": "Feature", "geometry": {"type": "Point", "coordinates": [121.534563, 25.026456]}, "properties": {"type": "cycle", "date": "1070409", "time": "20~22", "address": "臺北市大安區市民大道61 - 90號"}}, {"type": "Feature", "geometry": {"type": "Point", "coordinates": [121.533256, 25.052755]}, "properties": {"type": "cycle", "date": "1070410", "time": "08~10", "address": "臺北市中山區松江路121 - 150號"}}, {"type": "Feature", "geometry": {"type": "Point", "coordinates": [121.516227, 25.052692]}, "properties": {"type": "cycle", "date": "1070410", "time": "20~22", "address": "臺北市大同區太原路115巷1 - 30號"}}, {"type": "Feature", "geometry": {"type": "Point", "coordinates": [121.511843, 25.071335]}, "properties": {"type": "cycle", "date": "1070411", "time": "20~22", "address": "臺北市大同區重慶北路三段296巷與迪化街二段口"}}, {"type": "Feature", "geometry": {"type": "Point", "coordinates": [121.567083, 24.983715]}, "properties": {"type": "cycle", "date": "1070412", "time": "11~13", "address": "臺北市文山區順興里木新路2段218巷1 - 30號"}}, {"type": "Feature", "geometry": {"type": "Point", "coordinates": [121.507911, 25.098238]}, "properties": {"type": "cycle", "date": "1070412", "time": "08~10", "address": "臺北市北投區洲美街1 - 30號"}}, {"type": "Feature", "geometry": {"type": "Point", "coordinates": [121.512433, 25.064704]}, "properties": {"type": "cycle", "date": "1070412", "time": "08~10", "address": "臺北市大同區伊寧街31 - 60號"}}, {"type": "Feature", "geometry": {"type": "Point", "coordinates": [121.543231, 25.056216]}, "properties": {"type": "cycle", "date": "1070413", "time": "08~10", "address": "臺北市中山區興安街91 - 120號"}}, {"type": "Feature", "geometry": {"type": "Point", "coordinates": [121.533463, 25.049429]}, "properties": {"type": "cycle", "date": "1070413", "time": "08~10", "address": "臺北市中山區松江路69巷1 - 30號"}}, {"type": "Feature", "geometry": {"type": "Point", "coordinates": [121.553631, 25.027675]}, "properties": {"type": "cycle", "date": "1070415", "time": "17~19", "address": "臺北市大安區通化街175巷1 - 30號"}}, {"type": "Feature", "geometry": {"type": "Point", "coordinates": [121.60872, 25.054511]}, "properties": {"type": "cycle", "date": "1070415", "time": "17~19", "address": "臺北市南港區南港路一段271 - 300號"}}, {"type": "Feature", "geometry": {"type": "Point", "coordinates": [121.558525, 25.079882]}, "properties": {"type": "cycle", "date": "1070416", "time": "05~07", "address": "臺北市中山區敬業四路與樂群二路口"}}, {"type": "Feature", "geometry": {"type": "Point", "coordinates": [121.574815, 25.062669]}, "properties": {"type": "cycle", "date": "1070416", "time": "17~19", "address": "臺北市內湖區新湖三路與民善街口"}}, {"type": "Feature", "geometry": {"type": "Point", "coordinates": [121.543231, 25.056216]}, "properties": {"type": "cycle", "date": "1070417", "time": "08~10", "address": "臺北市中山區興安街91 - 120號"}}, {"type": "Feature", "geometry": {"type": "Point", "coordinates": [121.583396, 25.040609]}, "properties": {"type": "cycle", "date": "1070417", "time": "08~10", "address": "臺北市信義區忠孝東路五段790巷68弄1 - 30號"}}, {"type": "Feature", "geometry": {"type": "Point", "coordinates": [121.539589, 25.042239]}, "properties": {"type": "cycle", "date": "1070418", "time": "20~22", "address": "臺北市大安區忠孝東路三段217巷1弄1之1 - 30號"}}, {"type": "Feature", "geometry": {"type": "Point", "coordinates": [121.512886, 25.058182]}, "properties": {"type": "cycle", "date": "1070418", "time": "11~13", "address": "臺北市甘州街與歸綏街口之停車格"}}, {"type": "Feature", "geometry": {"type": "Point", "coordinates": [121.51792, 25.067216]}, "properties": {"type": "cycle", "date": "1070418", "time": "02~04", "address": "臺北市大同區承德路3段122巷1 - 30號"}}, {"type": "Feature", "geometry": {"type": "Point", "coordinates": [121.51946, 25.04604]}, "properties": {"type": "cycle", "date": "1070419", "time": "20~22", "address": "臺北市中正區逸仙公園旁無名巷"}}, {"type": "Feature", "geometry": {"type": "Point", "coordinates": [121.524218, 25.023177]}, "properties": {"type": "cycle", "date": "1070419", "time": "20~22", "address": "臺北市中正區晉江街96巷口"}}, {"type": "Feature", "geometry": {"type": "Point", "coordinates": [121.571189, 24.994708]}, "properties": {"type": "cycle", "date": "1070420", "time": "11~13", "address": "臺北市文山區萬芳路1 - 30號"}}, {"type": "Feature", "geometry": {"type": "Point", "coordinates": [121.517685, 25.105125]}, "properties": {"type": "cycle", "date": "1070420", "time": "14~16", "address": "臺北市北投區文林北路61 - 90號"}}, {"type": "Feature", "geometry": {"type": "Point", "coordinates": [121.498663, 25.129737]}, "properties": {"type": "cycle", "date": "1070420", "time": "20~22", "address": "臺北市北投區大興街24巷1弄1 - 30號"}}, {"type": "Feature", "geometry": {"type": "Point", "coordinates": [121.524949, 25.086359]}, "properties": {"type": "cycle", "date": "1070420", "time": "11~13", "address": "臺北市士林區基河路1 - 30號"}}, {"type": "Feature", "geometry": {"type": "Point", "coordinates": [121.526344, 25.022338]}, "properties": {"type": "cycle", "date": "1070421", "time": "08~10", "address": "臺北市大安區浦城街與羅斯福路三段交叉口"}}, {"type": "Feature", "geometry": {"type": "Point", "coordinates": [121.54061, 25.057219]}, "properties": {"type": "cycle", "date": "1070422", "time": "17~19", "address": "臺北市中山區合江街61巷與龍江路229巷口"}}, {"type": "Feature", "geometry": {"type": "Point", "coordinates": [121.532487, 25.060383]}, "properties": {"type": "cycle", "date": "1070422", "time": "05~07", "address": "臺北市中山區錦州街231巷口附近"}}, {"type": "Feature", "geometry": {"type": "Point", "coordinates": [121.522414, 25.030891]}, "properties": {"type": "cycle", "date": "1070423", "time": "05~07", "address": "臺北市大安區金華街91 - 120號"}}, {"type": "Feature", "geometry": {"type": "Point", "coordinates": [121.5268, 25.030079]}, "properties": {"type": "cycle", "date": "1070423", "time": "20~22", "address": "臺北市大安區錦安里金華街118之1 - 30號"}}, {"type": "Feature", "geometry": {"type": "Point", "coordinates": [121.525243, 25.106026]}, "properties": {"type": "cycle", "date": "1070423", "time": "20~22", "address": "臺北市士林區忠誠里中山北路6段132巷1 - 30號"}}, {"type": "Feature", "geometry": {"type": "Point", "coordinates": [121.528539, 25.020575]}, "properties": {"type": "cycle", "date": "1070425", "time": "05~07", "address": "臺北市中正區羅斯福路3段211 - 240號"}}, {"type": "Feature", "geometry": {"type": "Point", "coordinates": [121.530984, 25.06044]}, "properties": {"type": "cycle", "date": "1070426", "time": "08~10", "address": "臺北市中山區錦州街181 - 210號"}}, {"type": "Feature", "geometry": {"type": "Point", "coordinates": [121.525992, 25.123748]}, "properties": {"type": "cycle", "date": "1070427", "time": "20~22", "address": "臺北市北投區天母北路105巷1 - 30號"}}, {"type": "Feature", "geometry": {"type": "Point", "coordinates": [121.55406, 25.043475]}, "properties": {"type": "cycle", "date": "1070428", "time": "11~13", "address": "臺北市大安區延吉街91 - 120號"}}, {"type": "Feature", "geometry": {"type": "Point", "coordinates": [121.518249, 25.118625]}, "properties": {"type": "cycle", "date": "1070428", "time": "08~10", "address": "臺北市北投區石牌路2段181 - 210號"}}, {"type": "Feature", "geometry": {"type": "Point", "coordinates": [121.580529, 25.045717]}, "properties": {"type": "cycle", "date": "1070428", "time": "14~16", "address": "臺北市中坡北路37巷1 - 30號"}}, {"type": "Feature", "geometry": {"type": "Point", "coordinates": [121.508815, 25.060574]}, "properties": {"type": "cycle", "date": "1070428", "time": "20~22", "address": "臺北市大同區涼州街91 - 120號"}}, {"type": "Feature", "geometry": {"type": "Point", "coordinates": [121.506313, 25.037692]}, "properties": {"type": "cycle", "date": "1070428", "time": "17~19", "address": "臺北市萬華區西園路一段、桂林路口一帶"}}, {"type": "Feature", "geometry": {"type": "Point", "coordinates": [121.506241, 25.038129]}, "properties": {"type": "cycle", "date": "1070428", "time": "08~10", "address": "臺北市萬華區永福街1 - 30號"}}, {"type": "Feature", "geometry": {"type": "Point", "coordinates": [121.502681, 25.132303]}, "properties": {"type": "cycle", "date": "1070428", "time": "17~19", "address": "臺北市北投區北投捷運站附近"}}, {"type": "Feature", "geometry": {"type": "Point", "coordinates": [121.523857, 25.065948]}, "properties": {"type": "cycle", "date": "1070430", "time": "05~07", "address": "臺北市中山區雙城街28巷1 - 30號"}}, {"type": "Feature", "geometry": {"type": "Point", "coordinates": [121.580004, 25.05443]}, "properties": {"type": "cycle", "date": "1070430", "time": "17~19", "address": "臺北市內湖區週美里新明路475巷1 - 30號"}}, {"type": "Feature", "geometry": {"type": "Point", "coordinates": [121.500588, 25.024831]}, "properties": {"type": "cycle", "date": "1070430", "time": "17~19", "address": "臺北市萬華區萬大路301 - 330號"}}, {"type": "Feature", "geometry": {"type": "Point", "coordinates": [121.505969, 25.041673]}, "properties": {"type": "cycle", "date": "1070430", "time": "08~10", "address": "臺北市萬華區內江街與西寧南路一帶"}}, {"type": "Feature", "geometry": {"type": "Point", "coordinates": [121.527451, 25.064386]}, "properties": {"type": "cycle", "date": "1070501", "time": "02~04", "address": "臺北市中山區新生北路3段與林森北路557巷交叉口"}}, {"type": "Feature", "geometry": {"type": "Point", "coordinates": [121.515789, 25.033422]}, "properties": {"type": "cycle", "date": "1070501", "time": "08~10", "address": "臺北市中正區南昌路1段1 - 30號"}}, {"type": "Feature", "geometry": {"type": "Point", "coordinates": [121.516861, 25.118898]}, "properties": {"type": "cycle", "date": "1070501", "time": "11~13", "address": "臺北市北投區立農街二段301 - 330號"}}, {"type": "Feature", "geometry": {"type": "Point", "coordinates": [121.544244, 25.048858]}, "properties": {"type": "cycle", "date": "1070501", "time": "17~19", "address": "臺北市松山區復興北路151 - 180號"}}, {"type": "Feature", "geometry": {"type": "Point", "coordinates": [121.551967, 25.041573]}, "properties": {"type": "cycle", "date": "1070501", "time": "08~10", "address": "臺北市大安區忠孝東路4段205巷1 - 30號"}}, {"type": "Feature", "geometry": {"type": "Point", "coordinates": [121.601277, 25.057126]}, "properties": {"type": "cycle", "date": "1070501", "time": "11~13", "address": "臺北市南港區重陽路166巷1 - 30號"}}, {"type": "Feature", "geometry": {"type": "Point", "coordinates": [121.601277, 25.057126]}, "properties": {"type": "cycle", "date": "1070501", "time": "17~19", "address": "臺北市南港區重陽路166巷1 - 30號"}}, {"type": "Feature", "geometry": {"type": "Point", "coordinates": [121.602668, 25.080512]}, "properties": {"type": "cycle", "date": "1070501", "time": "08~10", "address": "臺北市內湖區大湖街168巷"}}, {"type": "Feature", "geometry": {"type": "Point", "coordinates": [121.53301, 25.058114]}, "properties": {"type": "cycle", "date": "1070502", "time": "08~10", "address": "臺北市中山區松江路與長安東路口"}}, {"type": "Feature", "geometry": {"type": "Point", "coordinates": [121.593066, 25.050551]}, "properties": {"type": "cycle", "date": "1070502", "time": "02~04", "address": "臺北市南港區忠孝東路六段421 - 450號"}}, {"type": "Feature", "geometry": {"type": "Point", "coordinates": [121.499891, 25.034887]}, "properties": {"type": "cycle", "date": "1070502", "time": "05~07", "address": "臺北市萬華區電影街周邊"}}, {"type": "Feature", "geometry": {"type": "Point", "coordinates": [121.537049, 25.051579]}, "properties": {"type": "cycle", "date": "1070504", "time": "20~22", "address": "臺北市中山區建國北路一段121 - 150號"}}, {"type": "Feature", "geometry": {"type": "Point", "coordinates": [121.579721, 25.078918]}, "properties": {"type": "cycle", "date": "1070504", "time": "20~22", "address": "臺北市內湖區內湖路2段31 - 60號"}}, {"type": "Feature", "geometry": {"type": "Point", "coordinates": [121.528583, 25.0629]}, "properties": {"type": "cycle", "date": "1070505", "time": "11~13", "address": "臺北市中山區民權東路二段92巷口"}}, {"type": "Feature", "geometry": {"type": "Point", "coordinates": [121.543216, 25.062551]}, "properties": {"type": "cycle", "date": "1070505", "time": "17~19", "address": "臺北市中山區民權東路三段61 - 90號"}}, {"type": "Feature", "geometry": {"type": "Point", "coordinates": [121.570296, 24.989467]}, "properties": {"type": "cycle", "date": "1070507", "time": "17~19", "address": "臺北市文山區羅斯福路路5段97巷1 - 30號"}}, {"type": "Feature", "geometry": {"type": "Point", "coordinates": [121.523779, 25.113679]}, "properties": {"type": "cycle", "date": "1070507", "time": "08~10", "address": "臺北市北投區富貴一路1 - 30號"}}, {"type": "Feature", "geometry": {"type": "Point", "coordinates": [121.503092, 25.091948]}, "properties": {"type": "cycle", "date": "1070507", "time": "14~16", "address": "臺北市士林區永倫里15鄰社中街391 - 420號"}}, {"type": "Feature", "geometry": {"type": "Point", "coordinates": [121.510089, 25.054876]}, "properties": {"type": "cycle", "date": "1070508", "time": "20~22", "address": "臺北市大同區迪化街271 - 300號"}}, {"type": "Feature", "geometry": {"type": "Point", "coordinates": [121.570191, 25.033633]}, "properties": {"type": "cycle", "date": "1070510", "time": "11~13", "address": "臺北市信義區松勇路69巷1 - 30號"}}, {"type": "Feature", "geometry": {"type": "Point", "coordinates": [121.576802, 25.049725]}, "properties": {"type": "cycle", "date": "1070510", "time": "17~19", "address": "臺北市松山區南京三民捷運站1 - 30號出口"}}, {"type": "Feature", "geometry": {"type": "Point", "coordinates": [121.507476, 25.047737]}, "properties": {"type": "cycle", "date": "1070510", "time": "17~19", "address": "臺北市萬華區西寧南路31 - 60號"}}, {"type": "Feature", "geometry": {"type": "Point", "coordinates": [121.518235, 25.032414]}, "properties": {"type": "cycle", "date": "1070511", "time": "17~19", "address": "臺北市中正區市民大道國父史蹟館旁無名巷"}}, {"type": "Feature", "geometry": {"type": "Point", "coordinates": [121.530078, 25.106618]}, "properties": {"type": "cycle", "date": "1070511", "time": "14~16", "address": "臺北市士林區聖山里21鄰忠誠路一段151 - 180號"}}, {"type": "Feature", "geometry": {"type": "Point", "coordinates": [121.526111, 25.106955]}, "properties": {"type": "cycle", "date": "1070511", "time": "08~10", "address": "臺北市士林區蘭雅里德行東路石油新村旁"}}, {"type": "Feature", "geometry": {"type": "Point", "coordinates": [121.57426, 24.991588]}, "properties": {"type": "cycle", "date": "1070512", "time": "08~10", "address": "臺北市文山區萬興里1鄰秀明路2段12巷1弄1 - 30號"}}, {"type": "Feature", "geometry": {"type": "Point", "coordinates": [121.574129, 25.058342]}, "properties": {"type": "cycle", "date": "1070512", "time": "17~19", "address": "臺北市內湖區新湖一路38巷1 - 30號"}}, {"type": "Feature", "geometry": {"type": "Point", "coordinates": [121.600917, 25.050863]}, "properties": {"type": "cycle", "date": "1070512", "time": "08~10", "address": "臺北市忠孝東路7段124巷的橋上"}}, {"type": "Feature", "geometry": {"type": "Point", "coordinates": [121.583533, 25.052001]}, "properties": {"type": "cycle", "date": "1070513", "time": "20~22", "address": "臺北市南港區玉成里16鄰南港路3段331 - 360號"}}, {"type": "Feature", "geometry": {"type": "Point", "coordinates": [121.579297, 25.051632]}, "properties": {"type": "cycle", "date": "1070513", "time": "00-02", "address": "臺北市松山區八德路四段829巷1 - 30號"}}, {"type": "Feature", "geometry": {"type": "Point", "coordinates": [121.495436, 25.014561]}, "properties": {"type": "cycle", "date": "1070513", "time": "18-20", "address": "臺北市萬華區華中橋下河濱公園內"}}, {"type": "Feature", "geometry": {"type": "Point", "coordinates": [121.510168, 25.111448]}, "properties": {"type": "cycle", "date": "1070513", "time": "18-20", "address": "臺北市北投區承德路7段91 - 120號"}}, {"type": "Feature", "geometry": {"type": "Point", "coordinates": [121.52416, 25.05551]}, "properties": {"type": "cycle", "date": "1070514", "time": "15-17", "address": "臺北市中山區中山北路二段59巷44弄1 - 30號"}}, {"type": "Feature", "geometry": {"type": "Point", "coordinates": [121.508961, 25.054581]}, "properties": {"type": "cycle", "date": "1070514", "time": "06~08", "address": "臺北市大同區西寧北路61 - 90號"}}, {"type": "Feature", "geometry": {"type": "Point", "coordinates": [121.520379, 25.075239]}, "properties": {"type": "cycle", "date": "1070514", "time": "15-17", "address": "臺北市大同區明倫高中後堤防"}}, {"type": "Feature", "geometry": {"type": "Point", "coordinates": [121.50066, 25.039764]}, "properties": {"type": "cycle", "date": "1070514", "time": "18-20", "address": "臺北市萬華區西昌街"}}, {"type": "Feature", "geometry": {"type": "Point", "coordinates": [121.577809, 25.057458]}, "properties": {"type": "cycle", "date": "1070515", "time": "21-23", "address": "臺北市內湖區行善路59巷1 - 30號"}}, {"type": "Feature", "geometry": {"type": "Point", "coordinates": [121.51852, 25.0846]}, "properties": {"type": "cycle", "date": "1070515", "time": "06~08", "address": "臺北市士林區百齡里11鄰前港街110巷1 - 30號"}}, {"type": "Feature", "geometry": {"type": "Point", "coordinates": [121.523984, 25.098503]}, "properties": {"type": "cycle", "date": "1070515", "time": "15-17", "address": "臺北市士林區舊佳里文林路594巷1 - 30號"}}, {"type": "Feature", "geometry": {"type": "Point", "coordinates": [121.504662, 25.043183]}, "properties": {"type": "cycle", "date": "1070515", "time": "15-17", "address": "臺北市萬華區成都路91 - 120號"}}, {"type": "Feature", "geometry": {"type": "Point", "coordinates": [121.510622, 25.076691]}, "properties": {"type": "cycle", "date": "1070515", "time": "12~04", "address": "臺北市大同區敦煌路181 - 210號"}}, {"type": "Feature", "geometry": {"type": "Point", "coordinates": [121.518389, 25.04793]}, "properties": {"type": "cycle", "date": "1070516", "time": "21-23", "address": "臺北市中正區北平西路1 - 30號"}}, {"type": "Feature", "geometry": {"type": "Point", "coordinates": [121.56445, 24.98977]}, "properties": {"type": "cycle", "date": "1070516", "time": "21-23", "address": "臺北市文山區木柵里秀明路1段31 - 60號"}}, {"type": "Feature", "geometry": {"type": "Point", "coordinates": [121.586868, 25.044511]}, "properties": {"type": "cycle", "date": "1070516", "time": "15-17", "address": "臺北市南港區成福路31 - 60號"}}, {"type": "Feature", "geometry": {"type": "Point", "coordinates": [121.53297, 25.054798]}, "properties": {"type": "cycle", "date": "1070517", "time": "15-17", "address": "臺北市中山區長春路與松江路口附近"}}, {"type": "Feature", "geometry": {"type": "Point", "coordinates": [121.53301, 25.058114]}, "properties": {"type": "cycle", "date": "1070517", "time": "09~11", "address": "臺北市中山區民權東路與松江路口"}}, {"type": "Feature", "geometry": {"type": "Point", "coordinates": [121.543332, 25.059086]}, "properties": {"type": "cycle", "date": "1070517", "time": "09~11", "address": "臺北市中山區復興北路294巷"}}, {"type": "Feature", "geometry": {"type": "Point", "coordinates": [121.569034, 24.983712]}, "properties": {"type": "cycle", "date": "1070517", "time": "09~11", "address": "臺北市文山區木新路2段161巷1 - 30號"}}, {"type": "Feature", "geometry": {"type": "Point", "coordinates": [121.584287, 25.049207]}, "properties": {"type": "cycle", "date": "1070517", "time": "06~8", "address": "臺北市南港區東新街1 - 30號"}}, {"type": "Feature", "geometry": {"type": "Point", "coordinates": [121.512232, 25.080754]}, "properties": {"type": "cycle", "date": "1070517", "time": "15-17", "address": "臺北市士林區福順里2鄰重慶北路四段49巷20弄1 - 30號"}}, {"type": "Feature", "geometry": {"type": "Point", "coordinates": [121.56772, 25.033131]}, "properties": {"type": "cycle", "date": "1070518", "time": "00-02", "address": "臺北市信義區仁愛路四512巷1 - 30號"}}, {"type": "Feature", "geometry": {"type": "Point", "coordinates": [121.492725, 25.035641]}, "properties": {"type": "cycle", "date": "1070518", "time": "09~11", "address": "臺北市萬華區和平西路三段331 - 360號"}}, {"type": "Feature", "geometry": {"type": "Point", "coordinates": [121.539091, 25.057382]}, "properties": {"type": "cycle", "date": "1070520", "time": "03~05", "address": "臺北市中山區合江街94巷1 - 30號"}}, {"type": "Feature", "geometry": {"type": "Point", "coordinates": [121.603197, 25.062954]}, "properties": {"type": "cycle", "date": "1070520", "time": "18-20", "address": "臺北市內湖區安康路228巷內"}}, {"type": "Feature", "geometry": {"type": "Point", "coordinates": [121.566488, 25.049203]}, "properties": {"type": "cycle", "date": "1070520", "time": "15-17", "address": "臺北市松山區八德路4段301 - 330號"}}, {"type": "Feature", "geometry": {"type": "Point", "coordinates": [121.502844, 25.0439]}, "properties": {"type": "cycle", "date": "1070520", "time": "21-23", "address": "臺北市萬華區康定路31 - 60號"}}, {"type": "Feature", "geometry": {"type": "Point", "coordinates": [121.50954, 25.025344]}, "properties": {"type": "cycle", "date": "1070521", "time": "00-02", "address": "臺北市中正區中華路二段441巷2弄"}}, {"type": "Feature", "geometry": {"type": "Point", "coordinates": [121.515324, 25.074027]}, "properties": {"type": "cycle", "date": "1070521", "time": "06~08", "address": "臺北市大同區哈密街63巷1 - 30號"}}, {"type": "Feature", "geometry": {"type": "Point", "coordinates": [121.595139, 25.059051]}, "properties": {"type": "cycle", "date": "1070522", "time": "06~08", "address": "臺北市南港區松河街661 - 690號"}}, {"type": "Feature", "geometry": {"type": "Point", "coordinates": [121.54769, 25.046219]}, "properties": {"type": "cycle", "date": "1070522", "time": "15-17", "address": "臺北市松山區敦化南路一段100巷"}}, {"type": "Feature", "geometry": {"type": "Point", "coordinates": [121.560179, 25.029082]}, "properties": {"type": "cycle", "date": "1070523", "time": "18-20", "address": "臺北市信義區吳興街118巷35弄"}}, {"type": "Feature", "geometry": {"type": "Point", "coordinates": [121.514195, 25.055573]}, "properties": {"type": "cycle", "date": "1070524", "time": "03~05", "address": "臺北市大同區重慶北路二段61 - 90號"}}, {"type": "Feature", "geometry": {"type": "Point", "coordinates": [121.543969, 25.036187]}, "properties": {"type": "cycle", "date": "1070525", "time": "09~11", "address": "臺北市大安區東豐街1 - 30號"}}, {"type": "Feature", "geometry": {"type": "Point", "coordinates": [121.616988, 25.058623]}, "properties": {"type": "cycle", "date": "1070525", "time": "09~11", "address": "臺北市南港區經貿二路105巷之口"}}, {"type": "Feature", "geometry": {"type": "Point", "coordinates": [121.522314, 25.084041]}, "properties": {"type": "cycle", "date": "1070525", "time": "15-17", "address": "臺北市士林區前港里01鄰劍潭路31 - 60號"}}, {"type": "Feature", "geometry": {"type": "Point", "coordinates": [121.576102, 25.051245]}, "properties": {"type": "cycle", "date": "1070525", "time": "21-23", "address": "臺北市松山區松河街91 - 120號"}}, {"type": "Feature", "geometry": {"type": "Point", "coordinates": [121.527228, 25.055494]}, "properties": {"type": "cycle", "date": "1070526", "time": "06~08", "address": "臺北市中山區新生北路二段60巷、長春路61巷口"}}, {"type": "Feature", "geometry": {"type": "Point", "coordinates": [121.541152, 24.991217]}, "properties": {"type": "cycle", "date": "1070527", "time": "06~08", "address": "臺北市文山區車前路1 - 30號"}}, {"type": "Feature", "geometry": {"type": "Point", "coordinates": [121.570507, 25.049931]}, "properties": {"type": "cycle", "date": "1070527", "time": "21-23", "address": "臺北市松山區八德路4段451 - 480號"}}, {"type": "Feature", "geometry": {"type": "Point", "coordinates": [121.515818, 25.061405]}, "properties": {"type": "cycle", "date": "1070527", "time": "18-20", "address": "臺北市大同區民權西路160巷30弄1 - 30號"}}, {"type": "Feature", "geometry": {"type": "Point", "coordinates": [121.540725, 25.048874]}, "properties": {"type": "cycle", "date": "1070528", "time": "12~14", "address": "臺北市中山區龍江路37巷1 - 30號"}}, {"type": "Feature", "geometry": {"type": "Point", "coordinates": [121.495904, 25.020376]}, "properties": {"type": "cycle", "date": "1070528", "time": "09~11", "address": "臺北市萬華區萬大路486巷59弄1 - 30號"}}, {"type": "Feature", "geometry": {"type": "Point", "coordinates": [121.533842, 25.045667]}, "properties": {"type": "cycle", "date": "1070529", "time": "18-20", "address": "臺北市中山區八德路、渭水路人行道上"}}, {"type": "Feature", "geometry": {"type": "Point", "coordinates": [121.508808, 25.029502]}, "properties": {"type": "cycle", "date": "1070529", "time": "21-23", "address": "臺北市中正區三元街與南海路口附"}}, {"type": "Feature", "geometry": {"type": "Point", "coordinates": [121.589268, 25.08327]}, "properties": {"type": "cycle", "date": "1070529", "time": "21-23", "address": "臺北市內湖區內湖路2段263巷30弄1 - 30號"}}, {"type": "Feature", "geometry": {"type": "Point", "coordinates": [121.526284, 25.092359]}, "properties": {"type": "cycle", "date": "1070529", "time": "09~11", "address": "臺北市士林區福德路1 - 30號"}}, {"type": "Feature", "geometry": {"type": "Point", "coordinates": [121.50674, 25.028764]}, "properties": {"type": "cycle", "date": "1070530", "time": "06~08", "address": "臺北市中正區中華路二段313巷31 - 60號"}}, {"type": "Feature", "geometry": {"type": "Point", "coordinates": [121.582116, 25.042842]}, "properties": {"type": "cycle", "date": "1070530", "time": "15-17", "address": "臺北市信義區忠孝東路5段790巷20弄1 - 30號"}}, {"type": "Feature", "geometry": {"type": "Point", "coordinates": [121.50529, 25.023102]}, "properties": {"type": "cycle", "date": "1070530", "time": "15-17", "address": "臺北市萬華區青年公園1 - 30號"}}, {"type": "Feature", "geometry": {"type": "Point", "coordinates": [121.500641, 25.032735]}, "properties": {"type": "cycle", "date": "1070530", "time": "01~03", "address": "臺北市萬華區萬大路1 - 30號"}}, {"type": "Feature", "geometry": {"type": "Point", "coordinates": [121.557659, 25.019717]}, "properties": {"type": "cycle", "date": "1070530", "time": "12~14", "address": "臺北市大安區和平東路三段391 - 420號"}}, {"type": "Feature", "geometry": {"type": "Point", "coordinates": [121.504766, 25.032183]}, "properties": {"type": "cycle", "date": "1070530", "time": "06~08", "address": "臺北市萬華區中華路2段121 - 150號"}}, {"type": "Feature", "geometry": {"type": "Point", "coordinates": [121.598867, 25.085074]}, "properties": {"type": "cycle", "date": "1070531", "time": "03~05", "address": "臺北市內湖區成功路4段324巷1弄1 - 30號"}}, {"type": "Feature", "geometry": {"type": "Point", "coordinates": [121.579918, 25.050407]}, "properties": {"type": "cycle", "date": "1070601", "time": "09~11", "address": "臺北市南港區八德路四段768巷1 - 30號"}}, {"type": "Feature", "geometry": {"type": "Point", "coordinates": [121.507257, 25.041599]}, "properties": {"type": "cycle", "date": "1070601", "time": "09~11", "address": "臺北市萬華區漢中街151 - 180號"}}, {"type": "Feature", "geometry": {"type": "Point", "coordinates": [121.569651, 25.050127]}, "properties": {"type": "cycle", "date": "1070602", "time": "00-02", "address": "臺北市信義區基隆路1段361 - 390號"}}, {"type": "Feature", "geometry": {"type": "Point", "coordinates": [121.512377, 25.070829]}, "properties": {"type": "cycle", "date": "1070604", "time": "09~11", "address": "臺北市大同區重慶北路3段236巷45弄1 - 30號"}}, {"type": "Feature", "geometry": {"type": "Point", "coordinates": [121.491073, 25.031323]}, "properties": {"type": "cycle", "date": "1070605", "time": "00-02", "address": "臺北市萬華區環河南路2段241 - 270號"}}, {"type": "Feature", "geometry": {"type": "Point", "coordinates": [121.527035, 25.053958]}, "properties": {"type": "cycle", "date": "1070606", "time": "21-23", "address": "臺北市中山區新生北路二段28巷1 - 30號"}}, {"type": "Feature", "geometry": {"type": "Point", "coordinates": [121.536474, 25.061891]}, "properties": {"type": "cycle", "date": "1070607", "time": "15-17", "address": "臺北市中山區建國北路2段258巷1 - 30號"}}, {"type": "Feature", "geometry": {"type": "Point", "coordinates": [121.5372, 25.035788]}, "properties": {"type": "cycle", "date": "1070607", "time": "09~11", "address": "臺北市大安區建國南路1段304巷1 - 30號"}}, {"type": "Feature", "geometry": {"type": "Point", "coordinates": [121.533628, 25.064251]}, "properties": {"type": "cycle", "date": "1070609", "time": "21-23", "address": "臺北市中山區市民大道"}}, {"type": "Feature", "geometry": {"type": "Point", "coordinates": [121.577683, 25.079453]}, "properties": {"type": "cycle", "date": "1070612", "time": "12~14", "address": "臺北市內湖區內湖路一段715巷內"}}, {"type": "Feature", "geometry": {"type": "Point", "coordinates": [121.525037, 25.085854]}, "properties": {"type": "cycle", "date": "1070612", "time": "21-23", "address": "臺北市士林區義信里基河路與文林路口的路邊收費停車格"}}, {"type": "Feature", "geometry": {"type": "Point", "coordinates": [121.501743, 25.038348]}, "properties": {"type": "cycle", "date": "1070612", "time": "09~11", "address": "臺北市萬華區桂林路與康定路口一帶"}}, {"type": "Feature", "geometry": {"type": "Point", "coordinates": [121.586509, 25.083718]}, "properties": {"type": "cycle", "date": "1070613", "time": "15-17", "address": "臺北市內湖區內湖路2段179巷31 - 60號"}}, {"type": "Feature", "geometry": {"type": "Point", "coordinates": [121.505939, 25.045787]}, "properties": {"type": "cycle", "date": "1070613", "time": "21-23", "address": "臺北市萬華區漢口街二段54之31 - 60號"}}, {"type": "Feature", "geometry": {"type": "Point", "coordinates": [121.526794, 25.060374]}, "properties": {"type": "cycle", "date": "1070614", "time": "06~08", "address": "臺北市中山區錦州街31 - 60號"}}, {"type": "Feature", "geometry": {"type": "Point", "coordinates": [121.553929, 25.047846]}, "properties": {"type": "cycle", "date": "1070614", "time": "21-23", "address": "臺北市八德路三段106巷1 - 30號"}}, {"type": "Feature", "geometry": {"type": "Point", "coordinates": [121.533362, 25.056341]}, "properties": {"type": "cycle", "date": "1070616", "time": "21-23", "address": "臺北市中山區松江路181 - 210號"}}, {"type": "Feature", "geometry": {"type": "Point", "coordinates": [121.541952, 25.062571]}, "properties": {"type": "cycle", "date": "1070616", "time": "09~11", "address": "臺北市中山區民權東路三段31 - 60號"}}, {"type": "Feature", "geometry": {"type": "Point", "coordinates": [121.51942, 25.057891]}, "properties": {"type": "cycle", "date": "1070616", "time": "00-02", "address": "臺北市大同區雙連街1巷1 - 30號"}}, {"type": "Feature", "geometry": {"type": "Point", "coordinates": [121.51881, 25.067369]}, "properties": {"type": "cycle", "date": "1070616", "time": "18-20", "address": "臺北市大同區承德路三段129巷1 - 30號"}}, {"type": "Feature", "geometry": {"type": "Point", "coordinates": [121.567221, 25.041749]}, "properties": {"type": "cycle", "date": "1070616", "time": "18-20", "address": "臺北市信義區忠孝東路五段71巷1 - 30號"}}, {"type": "Feature", "geometry": {"type": "Point", "coordinates": [121.529895, 25.059433]}, "properties": {"type": "cycle", "date": "1070617", "time": "18-20", "address": "臺北市中山區吉林路236巷1 - 30號"}}, {"type": "Feature", "geometry": {"type": "Point", "coordinates": [121.51668, 25.048876]}, "properties": {"type": "cycle", "date": "1070617", "time": "12~14", "address": "臺北市中正區市民大道一段國光客運站前人行道收費停車格"}}, {"type": "Feature", "geometry": {"type": "Point", "coordinates": [121.526311, 25.04422]}, "properties": {"type": "cycle", "date": "1070617", "time": "21-23", "address": "臺北市中正區忠孝東路一段91 - 120號"}}, {"type": "Feature", "geometry": {"type": "Point", "coordinates": [121.579088, 25.0647]}, "properties": {"type": "cycle", "date": "1070617", "time": "15-17", "address": "臺北市內湖區新湖三路大潤發機車停車場"}}, {"type": "Feature", "geometry": {"type": "Point", "coordinates": [121.52399, 25.089659]}, "properties": {"type": "cycle", "date": "1070617", "time": "03~05", "address": "臺北市士林區義信里大西路1 - 30號"}}, {"type": "Feature", "geometry": {"type": "Point", "coordinates": [121.509495, 25.053405]}, "properties": {"type": "cycle", "date": "1070617", "time": "00-02", "address": "臺北市大同區南京西路271 - 300號"}}, {"type": "Feature", "geometry": {"type": "Point", "coordinates": [121.518388, 25.056955]}, "properties": {"type": "cycle", "date": "1070617", "time": "12~14", "address": "臺北市大同區承德路二段121 - 150號"}}, {"type": "Feature", "geometry": {"type": "Point", "coordinates": [121.548554, 25.040659]}, "properties": {"type": "cycle", "date": "1070619", "time": "12~14", "address": "臺北市大安區敦化南路一段236巷附近"}}, {"type": "Feature", "geometry": {"type": "Point", "coordinates": [121.501348, 25.036087]}, "properties": {"type": "cycle", "date": "1070619", "time": "15-17", "address": "臺北市萬華區康定路與三水街口"}}, {"type": "Feature", "geometry": {"type": "Point", "coordinates": [121.515243, 25.050229]}, "properties": {"type": "cycle", "date": "1070620", "time": "12~14", "address": "臺北市大同區太原路1 - 30號"}}, {"type": "Feature", "geometry": {"type": "Point", "coordinates": [121.513593, 25.041632]}, "properties": {"type": "cycle", "date": "1070621", "time": "15-17", "address": "臺北市中正區懷寧街108巷"}}, {"type": "Feature", "geometry": {"type": "Point", "coordinates": [121.53056, 25.068181]}, "properties": {"type": "cycle", "date": "1070622", "time": "21-23", "address": "臺北市中山區吉林路481 - 510號"}}, {"type": "Feature", "geometry": {"type": "Point", "coordinates": [121.541276, 25.052797]}, "properties": {"type": "cycle", "date": "1070622", "time": "21-23", "address": "臺北市中山區遼寧街116巷內"}}, {"type": "Feature", "geometry": {"type": "Point", "coordinates": [121.528982, 25.056621]}, "properties": {"type": "cycle", "date": "1070622", "time": "12~14", "address": "臺北市中山區中原街31 - 60號"}}, {"type": "Feature", "geometry": {"type": "Point", "coordinates": [121.533, 25.036943]}, "properties": {"type": "cycle", "date": "1070622", "time": "18-20", "address": "臺北市大安區新生南路一段137或139巷"}}, {"type": "Feature", "geometry": {"type": "Point", "coordinates": [121.522273, 25.114594]}, "properties": {"type": "cycle", "date": "1070622", "time": "18-20", "address": "臺北市北投區明德路271 - 300號"}}, {"type": "Feature", "geometry": {"type": "Point", "coordinates": [121.606829, 25.05467]}, "properties": {"type": "cycle", "date": "1070623", "time": "21-23", "address": "臺北市南港區軟體園區站1 - 30號出口"}}, {"type": "Feature", "geometry": {"type": "Point", "coordinates": [121.544336, 25.033707]}, "properties": {"type": "cycle", "date": "1070623", "time": "15-17", "address": "臺北市大安區信義路4段199巷1 - 30號"}}, {"type": "Feature", "geometry": {"type": "Point", "coordinates": [121.55274, 25.036161]}, "properties": {"type": "cycle", "date": "1070624", "time": "03~05", "address": "臺北市大安區安和路1段91 - 120號"}}, {"type": "Feature", "geometry": {"type": "Point", "coordinates": [121.530541, 25.013449]}, "properties": {"type": "cycle", "date": "1070624", "time": "03~05", "address": "臺北市中正區思源街1 - 30號"}}, {"type": "Feature", "geometry": {"type": "Point", "coordinates": [121.501495, 25.126807]}, "properties": {"type": "cycle", "date": "1070624", "time": "09~11", "address": "臺北市北投區崇仁路1段61 - 90號"}}, {"type": "Feature", "geometry": {"type": "Point", "coordinates": [121.522713, 25.057864]}, "properties": {"type": "cycle", "date": "1070625", "time": "12~14", "address": "臺北市中山區民生西路與中山北路二段口"}}, {"type": "Feature", "geometry": {"type": "Point", "coordinates": [121.537477, 25.054788]}, "properties": {"type": "cycle", "date": "1070625", "time": "12~14", "address": "臺北市長春路181 - 210號"}}, {"type": "Feature", "geometry": {"type": "Point", "coordinates": [121.500954, 25.036741]}, "properties": {"type": "cycle", "date": "1070625", "time": "03~05", "address": "臺北市萬華區廣州街181 - 210號"}}, {"type": "Feature", "geometry": {"type": "Point", "coordinates": [121.518249, 25.118625]}, "properties": {"type": "cycle", "date": "1070625", "time": "15-17", "address": "臺北市北投區石牌路二段181 - 210號"}}, {"type": "Feature", "geometry": {"type": "Point", "coordinates": [121.471867, 25.126809]}, "properties": {"type": "cycle", "date": "1070625", "time": "15-17", "address": "臺北市北投區大度、立德路口附近"}}, {"type": "Feature", "geometry": {"type": "Point", "coordinates": [121.51851, 25.071875]}, "properties": {"type": "cycle", "date": "1070627", "time": "06~08", "address": "臺北市大同區承德路3段與庫倫街口"}}, {"type": "Feature", "geometry": {"type": "Point", "coordinates": [121.557106, 25.031669]}, "properties": {"type": "cycle", "date": "1070628", "time": "03~05", "address": "臺北市大安區光復南路628巷口"}}, {"type": "Feature", "geometry": {"type": "Point", "coordinates": [121.540036, 24.999825]}, "properties": {"type": "cycle", "date": "1070628", "time": "21-23", "address": "臺北市文山區景仁里羅斯福路六段31 - 60號"}}, {"type": "Feature", "geometry": {"type": "Point", "coordinates": [121.603038, 25.062405]}, "properties": {"type": "cycle", "date": "1070628", "time": "21-23", "address": "臺北市內湖區安康路226巷1 - 30號"}}, {"type": "Feature", "geometry": {"type": "Point", "coordinates": [121.521634, 25.080041]}, "properties": {"type": "cycle", "date": "1070629", "time": "09~11", "address": "臺北市士林區承德路四段12巷1 - 30號"}}, {"type": "Feature", "geometry": {"type": "Point", "coordinates": [121.521038, 25.078927]}, "properties": {"type": "cycle", "date": "1070629", "time": "09~11", "address": "臺北市士林區承德里承德路四段2巷1 - 30號"}}, {"type": "Feature", "geometry": {"type": "Point", "coordinates": [121.579669, 25.03853]}, "properties": {"type": "cycle", "date": "1070629", "time": "13-15", "address": "臺北市信義區林口街52巷1 - 30號"}}, {"type": "Feature", "geometry": {"type": "Point", "coordinates": [121.616444, 25.043991]}, "properties": {"type": "cycle", "date": "1070630", "time": "18-20", "address": "臺北市南港區舊莊里研究院路2段61巷1 - 30號"}}, {"type": "Feature", "geometry": {"type": "Point", "coordinates": [121.494241, 25.028582]}, "properties": {"type": "cycle", "date": "1070630", "time": "09~11", "address": "臺北市萬華區西藏路241 - 270號"}}, {"type": "Feature", "geometry": {"type": "Point", "coordinates": [121.504744, 25.040551]}, "properties": {"type": "cycle", "date": "1070702", "time": "00-02", "address": "臺北市萬華區長沙街二段91 - 120號"}}, {"type": "Feature", "geometry": {"type": "Point", "coordinates": [121.517888, 25.03221]}, "properties": {"type": "cycle", "date": "1070703", "time": "06~08", "address": "臺北市中正區南海路二巷"}}, {"type": "Feature", "geometry": {"type": "Point", "coordinates": [121.501911, 25.025502]}, "properties": {"type": "cycle", "date": "1070703", "time": "09~11", "address": "臺北市萬華區萬大路277巷31 - 60號"}}, {"type": "Feature", "geometry": {"type": "Point", "coordinates": [121.619971, 25.074566]}, "properties": {"type": "cycle", "date": "1070704", "time": "09~11", "address": "臺北市內湖區康樂街151巷口"}}, {"type": "Feature", "geometry": {"type": "Point", "coordinates": [121.577584, 25.050741]}, "properties": {"type": "cycle", "date": "1070704", "time": "15-17", "address": "臺北市松山區八德路4段751 - 780號"}}, {"type": "Feature", "geometry": {"type": "Point", "coordinates": [121.503525, 25.038576]}, "properties": {"type": "cycle", "date": "1070704", "time": "12~14", "address": "臺北市萬華區永福街與貴陽街二段82巷口"}}, {"type": "Feature", "geometry": {"type": "Point", "coordinates": [121.593208, 25.064963]}, "properties": {"type": "cycle", "date": "1070705", "time": "03~05", "address": "臺北市內湖區石潭里1鄰成功路二段115巷47弄31 - 60號"}}, {"type": "Feature", "geometry": {"type": "Point", "coordinates": [121.500151, 25.137152]}, "properties": {"type": "cycle", "date": "1070705", "time": "09~11", "address": "臺北市北投區大業路691 - 720號"}}, {"type": "Feature", "geometry": {"type": "Point", "coordinates": [121.501282, 25.128329]}, "properties": {"type": "cycle", "date": "1070705", "time": "12~14", "address": "臺北市北投區崇仁路一段與三合街"}}, {"type": "Feature", "geometry": {"type": "Point", "coordinates": [121.560819, 25.054896]}, "properties": {"type": "cycle", "date": "1070705", "time": "12~14", "address": "臺北市松山區延壽街330巷17弄1 - 30號"}}, {"type": "Feature", "geometry": {"type": "Point", "coordinates": [121.51362, 25.067702]}, "properties": {"type": "cycle", "date": "1070705", "time": "21-23", "address": "臺北市大同區重慶北路三段與重慶北路三段136巷口"}}, {"type": "Feature", "geometry": {"type": "Point", "coordinates": [121.524127, 25.067591]}, "properties": {"type": "cycle", "date": "1070706", "time": "18-20", "address": "臺北市中山區雙城街46巷1 - 30號"}}, {"type": "Feature", "geometry": {"type": "Point", "coordinates": [121.527262, 25.065404]}, "properties": {"type": "cycle", "date": "1070706", "time": "15-17", "address": "臺北市新生北路3段56巷1 - 30號"}}, {"type": "Feature", "geometry": {"type": "Point", "coordinates": [121.554987, 25.031294]}, "properties": {"type": "cycle", "date": "1070706", "time": "00-02", "address": "臺北市大安區通化街19巷6弄"}}, {"type": "Feature", "geometry": {"type": "Point", "coordinates": [121.512344, 25.068967]}, "properties": {"type": "cycle", "date": "1070706", "time": "06~08", "address": "臺北市大同區民族西路225巷1 - 30號"}}, {"type": "Feature", "geometry": {"type": "Point", "coordinates": [121.537373, 25.065307]}, "properties": {"type": "cycle", "date": "1070707", "time": "18-20", "address": "臺北市中山區建國北路三段75巷1 - 30號"}}, {"type": "Feature", "geometry": {"type": "Point", "coordinates": [121.513797, 25.097099]}, "properties": {"type": "cycle", "date": "1070707", "time": "15-17", "address": "臺北市士林區承德路五段61 - 90號"}}, {"type": "Feature", "geometry": {"type": "Point", "coordinates": [121.523744, 25.045861]}, "properties": {"type": "cycle", "date": "1070708", "time": "21-23", "address": "臺北市中正區林森北路9巷1 - 30號"}}, {"type": "Feature", "geometry": {"type": "Point", "coordinates": [121.530275, 25.05572]}, "properties": {"type": "cycle", "date": "1070709", "time": "18-20", "address": "臺北市中山區吉林路91 - 120號"}}, {"type": "Feature", "geometry": {"type": "Point", "coordinates": [121.524864, 25.059957]}, "properties": {"type": "cycle", "date": "1070710", "time": "12~14", "address": "臺北市中山區錦州街30巷1 - 30號"}}, {"type": "Feature", "geometry": {"type": "Point", "coordinates": [121.512542, 25.073655]}, "properties": {"type": "cycle", "date": "1070710", "time": "03~05", "address": "臺北市大同區迪化街2段301 - 330號"}}, {"type": "Feature", "geometry": {"type": "Point", "coordinates": [121.59876, 25.085127]}, "properties": {"type": "cycle", "date": "1070711", "time": "15-17", "address": "臺北市內湖區成功路4段324巷口"}}, {"type": "Feature", "geometry": {"type": "Point", "coordinates": [121.550824, 25.042182]}, "properties": {"type": "cycle", "date": "1070711", "time": "18-20", "address": "臺北市忠孝東路4段181巷7弄1 - 30號"}}, {"type": "Feature", "geometry": {"type": "Point", "coordinates": [121.537307, 25.065477]}, "properties": {"type": "cycle", "date": "1070712", "time": "09~11", "address": "臺北市中山區建國北路三段81巷1 - 30號"}}, {"type": "Feature", "geometry": {"type": "Point", "coordinates": [121.559315, 24.989847]}, "properties": {"type": "cycle", "date": "1070712", "time": "21-23", "address": "臺北市文山區樟林里24鄰興隆路4段62巷1 - 30號"}}, {"type": "Feature", "geometry": {"type": "Point", "coordinates": [121.578024, 25.042664]}, "properties": {"type": "cycle", "date": "1070712", "time": "15-17", "address": "臺北市信義區松山路301 - 330號"}}, {"type": "Feature", "geometry": {"type": "Point", "coordinates": [121.566398, 25.027057]}, "properties": {"type": "cycle", "date": "1070713", "time": "09~11", "address": "臺北市信義區莊敬路391 - 420號"}}, {"type": "Feature", "geometry": {"type": "Point", "coordinates": [121.515366, 25.066056]}, "properties": {"type": "cycle", "date": "1070713", "time": "03~05", "address": "臺北市大同區一帶"}}, {"type": "Feature", "geometry": {"type": "Point", "coordinates": [121.508766, 25.025048]}, "properties": {"type": "cycle", "date": "1070713", "time": "12~14", "address": "臺北市萬華區中華路二段511 - 540號"}}, {"type": "Feature", "geometry": {"type": "Point", "coordinates": [121.525656, 25.060375]}, "properties": {"type": "cycle", "date": "1070714", "time": "18-20", "address": "臺北市中山區林森北路421 - 450號"}}, {"type": "Feature", "geometry": {"type": "Point", "coordinates": [121.48931, 25.032185]}, "properties": {"type": "cycle", "date": "1070714", "time": "18-20", "address": "臺北市萬華區長順街107巷1 - 30號"}}, {"type": "Feature", "geometry": {"type": "Point", "coordinates": [121.502847, 25.036667]}, "properties": {"type": "cycle", "date": "1070714", "time": "12~14", "address": "臺北市萬華區廣州街121 - 150號"}}, {"type": "Feature", "geometry": {"type": "Point", "coordinates": [121.577935, 25.035172]}, "properties": {"type": "cycle", "date": "1070715", "time": "12~14", "address": "臺北市信義區虎林街272巷內"}}, {"type": "Feature", "geometry": {"type": "Point", "coordinates": [121.578372, 25.082375]}, "properties": {"type": "cycle", "date": "1070715", "time": "15-17", "address": "臺北市內湖區港墘路31 - 60號"}}, {"type": "Feature", "geometry": {"type": "Point", "coordinates": [121.530473, 25.065205]}, "properties": {"type": "cycle", "date": "1070716", "time": "06~08", "address": "臺北市中山區吉林路379巷口附近"}}, {"type": "Feature", "geometry": {"type": "Point", "coordinates": [121.495829, 25.132815]}, "properties": {"type": "cycle", "date": "1070716", "time": "09~11", "address": "臺北市北投區大業路280巷1 - 30號"}}, {"type": "Feature", "geometry": {"type": "Point", "coordinates": [121.512542, 25.073655]}, "properties": {"type": "cycle", "date": "1070716", "time": "06~8", "address": "臺北市大同區迪化街2段301 - 330號"}}, {"type": "Feature", "geometry": {"type": "Point", "coordinates": [121.523584, 25.052763]}, "properties": {"type": "cycle", "date": "1070717", "time": "06~08", "address": "臺北市中山區中山北路二段11巷"}}, {"type": "Feature", "geometry": {"type": "Point", "coordinates": [121.534563, 25.026456]}, "properties": {"type": "cycle", "date": "1070717", "time": "00-02", "address": "臺北市大安區仁愛路345巷1 - 30號"}}, {"type": "Feature", "geometry": {"type": "Point", "coordinates": [121.580922, 25.051702]}, "properties": {"type": "cycle", "date": "1070717", "time": "00-02", "address": "臺北市南港區南港路三段330巷內"}}, {"type": "Feature", "geometry": {"type": "Point", "coordinates": [121.526251, 25.107077]}, "properties": {"type": "cycle", "date": "1070718", "time": "15-17", "address": "臺北市士林區蘭雅里德行東路37巷"}}, {"type": "Feature", "geometry": {"type": "Point", "coordinates": [121.498159, 25.035335]}, "properties": {"type": "cycle", "date": "1070718", "time": "18-20", "address": "臺北市萬華區和平西路三段華江橋下機車停車場"}}, {"type": "Feature", "geometry": {"type": "Point", "coordinates": [121.503765, 25.045366]}, "properties": {"type": "cycle", "date": "1070718", "time": "15-17", "address": "臺北市萬華區武昌街二段124之2"}}, {"type": "Feature", "geometry": {"type": "Point", "coordinates": [121.53309, 25.048549]}, "properties": {"type": "cycle", "date": "1070719", "time": "12~14", "address": "臺北市中山區松江路61 - 90號"}}, {"type": "Feature", "geometry": {"type": "Point", "coordinates": [121.5158, 25.026314]}, "properties": {"type": "cycle", "date": "1070719", "time": "12~14", "address": "臺北市中正區汀州路二段55巷內"}}, {"type": "Feature", "geometry": {"type": "Point", "coordinates": [121.491447, 25.026894]}, "properties": {"type": "cycle", "date": "1070719", "time": "06~08", "address": "臺北市萬華區西園路二段320巷36弄附近"}}, {"type": "Feature", "geometry": {"type": "Point", "coordinates": [121.52601, 25.061093]}, "properties": {"type": "cycle", "date": "1070720", "time": "18-20", "address": "臺北市中山區林森北路481 - 510號"}}, {"type": "Feature", "geometry": {"type": "Point", "coordinates": [121.53782, 25.055593]}, "properties": {"type": "cycle", "date": "1070720", "time": "06~08", "address": "臺北市中山區合江街36巷31 - 60號"}}, {"type": "Feature", "geometry": {"type": "Point", "coordinates": [121.533405, 25.059877]}, "properties": {"type": "cycle", "date": "1070720", "time": "12~14", "address": "臺北市中山區松江路271 - 300號"}}, {"type": "Feature", "geometry": {"type": "Point", "coordinates": [121.552289, 25.033944]}, "properties": {"type": "cycle", "date": "1070721", "time": "00-02", "address": "臺北市大安區安和路一段112巷1 - 30號"}}, {"type": "Feature", "geometry": {"type": "Point", "coordinates": [121.499015, 25.040128]}, "properties": {"type": "cycle", "date": "1070721", "time": "18-20", "address": "臺北市萬華區貴陽街二段211 - 240號"}}, {"type": "Feature", "geometry": {"type": "Point", "coordinates": [121.511278, 25.063417]}, "properties": {"type": "cycle", "date": "1070722", "time": "18-20", "address": "臺北市延平北路3段夜市一帶"}}, {"type": "Feature", "geometry": {"type": "Point", "coordinates": [121.555587, 25.03084]}, "properties": {"type": "cycle", "date": "1070723", "time": "21-23", "address": "臺北市大安區通化街39巷49弄1 - 30號"}}, {"type": "Feature", "geometry": {"type": "Point", "coordinates": [121.510457, 25.050704]}, "properties": {"type": "cycle", "date": "1070723", "time": "18-20", "address": "臺北市大同區鄭州路塔城街附近"}}, {"type": "Feature", "geometry": {"type": "Point", "coordinates": [121.499891, 25.034887]}, "properties": {"type": "cycle", "date": "1070724", "time": "06~08", "address": "臺北市萬華區環河南路241 - 270號"}}, {"type": "Feature", "geometry": {"type": "Point", "coordinates": [121.513295, 25.05103]}, "properties": {"type": "cycle", "date": "1070726", "time": "06~08", "address": "臺北市大同區重慶北路一段26巷9弄1 - 30號"}}, {"type": "Feature", "geometry": {"type": "Point", "coordinates": [121.503869, 25.029337]}, "properties": {"type": "cycle", "date": "1070726", "time": "12~14", "address": "臺北市萬華區中華路二段364巷22弄"}}, {"type": "Feature", "geometry": {"type": "Point", "coordinates": [121.567061, 24.983283]}, "properties": {"type": "cycle", "date": "1070727", "time": "09~11", "address": "臺北市文山區木新路二段241 - 270號"}}, {"type": "Feature", "geometry": {"type": "Point", "coordinates": [121.514029, 25.07121]}, "properties": {"type": "cycle", "date": "1070727", "time": "03~05", "address": "臺北市大同區重慶北路3段241 - 270號"}}, {"type": "Feature", "geometry": {"type": "Point", "coordinates": [121.492433, 25.025518]}, "properties": {"type": "cycle", "date": "1070727", "time": "15-17", "address": "臺北市萬華區西園路2段271 - 300號"}}, {"type": "Feature", "geometry": {"type": "Point", "coordinates": [121.554433, 25.043171]}, "properties": {"type": "cycle", "date": "1070728", "time": "21-23", "address": "臺北市大安區延吉街131巷1弄1 - 30號"}}, {"type": "Feature", "geometry": {"type": "Point", "coordinates": [121.532959, 25.015877]}, "properties": {"type": "cycle", "date": "1070728", "time": "09~11", "address": "臺北市中正區羅斯福路四段12巷內"}}, {"type": "Feature", "geometry": {"type": "Point", "coordinates": [121.558779, 24.98113]}, "properties": {"type": "cycle", "date": "1070728", "time": "06~08", "address": "臺北市文山區木新路3段241 - 270號"}}, {"type": "Feature", "geometry": {"type": "Point", "coordinates": [121.616371, 25.054764]}, "properties": {"type": "cycle", "date": "1070728", "time": "03~05", "address": "臺北市南港區研究院路一段2巷1 - 30號"}}, {"type": "Feature", "geometry": {"type": "Point", "coordinates": [121.515366, 25.066056]}, "properties": {"type": "cycle", "date": "1070728", "time": "15-17", "address": "臺北市大同區市民大道附近巷弄"}}, {"type": "Feature", "geometry": {"type": "Point", "coordinates": [121.528603, 25.024195]}, "properties": {"type": "cycle", "date": "1070729", "time": "15-17", "address": "臺北市大安區師大路49巷口附近"}}, {"type": "Feature", "geometry": {"type": "Point", "coordinates": [121.512592, 25.051392]}, "properties": {"type": "cycle", "date": "1070731", "time": "18-20", "address": "臺北市大同區延平北路1段69巷"}}, {"type": "Feature", "geometry": {"type": "Point", "coordinates": [121.520221, 25.04932]}, "properties": {"type": "cycle", "date": "1070801", "time": "09~11", "address": "臺北市中山區長安西路40巷10弄1 - 30號"}}, {"type": "Feature", "geometry": {"type": "Point", "coordinates": [121.516775, 25.049057]}, "properties": {"type": "cycle", "date": "1070801", "time": "15-17", "address": "臺北市大同區承德路1段1 - 30號"}}, {"type": "Feature", "geometry": {"type": "Point", "coordinates": [121.526712, 25.108821]}, "properties": {"type": "cycle", "date": "1070802", "time": "06~08", "address": "臺北市士林區蘭雅里中山北路6段290巷7弄"}}, {"type": "Feature", "geometry": {"type": "Point", "coordinates": [121.528293, 25.110019]}, "properties": {"type": "cycle", "date": "1070802", "time": "18-20", "address": "臺北市士林區蘭雅里德行東路109巷73弄1 - 30號"}}, {"type": "Feature", "geometry": {"type": "Point", "coordinates": [121.556533, 25.026399]}, "properties": {"type": "cycle", "date": "1070802", "time": "06~08", "address": "臺北市信義區嘉興街181巷1 - 30號"}}, {"type": "Feature", "geometry": {"type": "Point", "coordinates": [121.575982, 25.044236]}, "properties": {"type": "cycle", "date": "1070802", "time": "18-20", "address": "臺北市信義區虎林街70巷31 - 60號"}}, {"type": "Feature", "geometry": {"type": "Point", "coordinates": [121.501083, 25.034013]}, "properties": {"type": "cycle", "date": "1070803", "time": "18-20", "address": "臺北市萬華區康定路301 - 330號"}}, {"type": "Feature", "geometry": {"type": "Point", "coordinates": [121.522313, 25.117971]}, "properties": {"type": "cycle", "date": "1070804", "time": "18-20", "address": "臺北市北投區振興街31 - 60號"}}, {"type": "Feature", "geometry": {"type": "Point", "coordinates": [121.499891, 25.034887]}, "properties": {"type": "cycle", "date": "1070804", "time": "00-02", "address": "臺北市萬華區環河南路路二段125巷1 - 30號"}}, {"type": "Feature", "geometry": {"type": "Point", "coordinates": [121.533954, 25.065635]}, "properties": {"type": "cycle", "date": "1070805", "time": "21-23", "address": "臺北市中山區松江路431巷1 - 30號"}}, {"type": "Feature", "geometry": {"type": "Point", "coordinates": [121.522303, 25.029453]}, "properties": {"type": "cycle", "date": "1070805", "time": "18-20", "address": "臺北市大安區潮州街26巷1 - 30號"}}, {"type": "Feature", "geometry": {"type": "Point", "coordinates": [121.539768, 25.067274]}, "properties": {"type": "cycle", "date": "1070806", "time": "09~11", "address": "臺北市中山區龍江路394巷31 - 60號"}}, {"type": "Feature", "geometry": {"type": "Point", "coordinates": [121.499891, 25.034887]}, "properties": {"type": "cycle", "date": "1070806", "time": "18-20", "address": "臺北市萬華區堤外便道路邊機車停車格"}}, {"type": "Feature", "geometry": {"type": "Point", "coordinates": [121.53096, 25.017593]}, "properties": {"type": "cycle", "date": "1070807", "time": "12~14", "address": "臺北市臺電大樓1 - 30號出口"}}, {"type": "Feature", "geometry": {"type": "Point", "coordinates": [121.575246, 25.041246]}, "properties": {"type": "cycle", "date": "1070807", "time": "12~14", "address": "臺北市信義區忠孝東路5段423巷1 - 30號"}}, {"type": "Feature", "geometry": {"type": "Point", "coordinates": [121.544098, 25.046445]}, "properties": {"type": "cycle", "date": "1070807", "time": "15-17", "address": "臺北市松山區復興南路一段31 - 60號"}}, {"type": "Feature", "geometry": {"type": "Point", "coordinates": [121.53096, 25.017593]}, "properties": {"type": "cycle", "date": "1070808", "time": "12~14", "address": "臺北市中正區台電大樓捷運站1 - 30號"}}, {"type": "Feature", "geometry": {"type": "Point", "coordinates": [121.570879, 25.00046]}, "properties": {"type": "cycle", "date": "1070808", "time": "18-20", "address": "臺北市文山區萬安街37巷1 - 30號"}}, {"type": "Feature", "geometry": {"type": "Point", "coordinates": [121.508461, 25.052662]}, "properties": {"type": "cycle", "date": "1070808", "time": "15-17", "address": "臺北市大同區西寧北路62之1 - 30號"}}, {"type": "Feature", "geometry": {"type": "Point", "coordinates": [121.506412, 25.046741]}, "properties": {"type": "cycle", "date": "1070808", "time": "06~08", "address": "臺北市開封街2段31 - 60號"}}, {"type": "Feature", "geometry": {"type": "Point", "coordinates": [121.508872, 25.080084]}, "properties": {"type": "cycle", "date": "1070809", "time": "18-20", "address": "臺北市士林區富光里21鄰葫蘆街61 - 90號"}}, {"type": "Feature", "geometry": {"type": "Point", "coordinates": [121.555122, 25.047215]}, "properties": {"type": "cycle", "date": "1070809", "time": "03~05", "address": "臺北市松山區八德路3段158巷20弄1 - 30號"}}, {"type": "Feature", "geometry": {"type": "Point", "coordinates": [121.518045, 25.069202]}, "properties": {"type": "cycle", "date": "1070809", "time": "12~14", "address": "臺北市大同區承德路三段176巷1 - 30號"}}, {"type": "Feature", "geometry": {"type": "Point", "coordinates": [121.505615, 25.046015]}, "properties": {"type": "cycle", "date": "1070809", "time": "18-20", "address": "臺北市萬華區漢口街2段61 - 90號"}}, {"type": "Feature", "geometry": {"type": "Point", "coordinates": [121.522303, 25.029453]}, "properties": {"type": "cycle", "date": "1070810", "time": "15-17", "address": "臺北市大安區潮州街26巷1 - 30號"}}, {"type": "Feature", "geometry": {"type": "Point", "coordinates": [121.555174, 25.027411]}, "properties": {"type": "cycle", "date": "1070811", "time": "09~11", "address": "臺北市台北市大安區通化街171巷30弄1 - 30號"}}, {"type": "Feature", "geometry": {"type": "Point", "coordinates": [121.518235, 25.032414]}, "properties": {"type": "cycle", "date": "1070811", "time": "03~05", "address": "臺北市中正區南門里和平西路路2段61 - 90號"}}, {"type": "Feature", "geometry": {"type": "Point", "coordinates": [121.517383, 25.051327]}, "properties": {"type": "cycle", "date": "1070811", "time": "15-17", "address": "臺北市大同區承德路1段41巷口弄"}}, {"type": "Feature", "geometry": {"type": "Point", "coordinates": [121.577194, 25.042779]}, "properties": {"type": "cycle", "date": "1070812", "time": "06~08", "address": "臺北市信義區虎林街101巷1 - 30號"}}, {"type": "Feature", "geometry": {"type": "Point", "coordinates": [121.518235, 25.032414]}, "properties": {"type": "cycle", "date": "1070813", "time": "00-02", "address": "臺北市中正區中華路路二段315巷1 - 30號"}}, {"type": "Feature", "geometry": {"type": "Point", "coordinates": [121.493013, 25.033646]}, "properties": {"type": "cycle", "date": "1070814", "time": "06~08", "address": "臺北市萬華區華江里環河南路2段151 - 180號"}}, {"type": "Feature", "geometry": {"type": "Point", "coordinates": [121.520304, 25.024752]}, "properties": {"type": "cycle", "date": "1070815", "time": "18-20", "address": "臺北市中正區汀洲路二段同安街口"}}, {"type": "Feature", "geometry": {"type": "Point", "coordinates": [121.560933, 24.986701]}, "properties": {"type": "cycle", "date": "1070815", "time": "12~14", "address": "臺北市文山區興隆路四段上"}}, {"type": "Feature", "geometry": {"type": "Point", "coordinates": [121.502681, 25.132303]}, "properties": {"type": "cycle", "date": "1070815", "time": "15-17", "address": "臺北市北投區明德捷運站周邊道路"}}, {"type": "Feature", "geometry": {"type": "Point", "coordinates": [121.494171, 25.030026]}, "properties": {"type": "cycle", "date": "1070815", "time": "15-17", "address": "臺北市萬華區雙園街61 - 90號"}}, {"type": "Feature", "geometry": {"type": "Point", "coordinates": [121.553555, 25.021723]}, "properties": {"type": "cycle", "date": "1070816", "time": "03~05", "address": "臺北市大安區芳和里15鄰和平東路3段212巷31 - 60號"}}, {"type": "Feature", "geometry": {"type": "Point", "coordinates": [121.553885, 25.028702]}, "properties": {"type": "cycle", "date": "1070816", "time": "12~14", "address": "臺北市大安區通化街151 - 180號"}}, {"type": "Feature", "geometry": {"type": "Point", "coordinates": [121.544817, 25.032031]}, "properties": {"type": "cycle", "date": "1070816", "time": "03~05", "address": "臺北市大安區信義路四段30巷27弄1 - 30號"}}, {"type": "Feature", "geometry": {"type": "Point", "coordinates": [121.493871, 25.032944]}, "properties": {"type": "cycle", "date": "1070816", "time": "03~05", "address": "臺北市萬華區大理街160巷19弄31 - 60號"}}, {"type": "Feature", "geometry": {"type": "Point", "coordinates": [121.531985, 25.052188]}, "properties": {"type": "cycle", "date": "1070817", "time": "15-17", "address": "臺北市中山區南京東路二段91 - 120號"}}, {"type": "Feature", "geometry": {"type": "Point", "coordinates": [121.553907, 25.029519]}, "properties": {"type": "cycle", "date": "1070817", "time": "18-20", "address": "臺北市大安區通化街108巷之口"}}, {"type": "Feature", "geometry": {"type": "Point", "coordinates": [121.527902, 25.057327]}, "properties": {"type": "cycle", "date": "1070818", "time": "09~11", "address": "臺北市中山區聚盛里新生北路2段91 - 120號"}}, {"type": "Feature", "geometry": {"type": "Point", "coordinates": [121.523099, 25.05802]}, "properties": {"type": "cycle", "date": "1070818", "time": "09~11", "address": "臺北市中山區中山北路二段77巷1 - 30號"}}, {"type": "Feature", "geometry": {"type": "Point", "coordinates": [121.556268, 25.029436]}, "properties": {"type": "cycle", "date": "1070818", "time": "06~08", "address": "臺北市大安區臨江街40巷1 - 30號"}}, {"type": "Feature", "geometry": {"type": "Point", "coordinates": [121.506933, 25.036323]}, "properties": {"type": "cycle", "date": "1070818", "time": "06~08", "address": "臺北市中正區中華路二段31 - 60號"}}, {"type": "Feature", "geometry": {"type": "Point", "coordinates": [121.550628, 24.997439]}, "properties": {"type": "cycle", "date": "1070818", "time": "09~11", "address": "臺北市文山區興安里14鄰仙岩路16巷51弄1 - 30號"}}, {"type": "Feature", "geometry": {"type": "Point", "coordinates": [121.587109, 25.049204]}, "properties": {"type": "cycle", "date": "1070819", "time": "21-23", "address": "臺北市南港區忠孝東路六段181 - 210號"}}, {"type": "Feature", "geometry": {"type": "Point", "coordinates": [121.512011, 25.046058]}, "properties": {"type": "cycle", "date": "1070820", "time": "12~14", "address": "臺北市中正區開封街1段61 - 90號"}}, {"type": "Feature", "geometry": {"type": "Point", "coordinates": [121.522967, 25.064988]}, "properties": {"type": "cycle", "date": "1070822", "time": "09~11", "address": "臺北市中山區農安街1 - 30號"}}, {"type": "Feature", "geometry": {"type": "Point", "coordinates": [121.527991, 25.062887]}, "properties": {"type": "cycle", "date": "1070822", "time": "06~08", "address": "臺北市中山區新生北路3段1 - 30號"}}, {"type": "Feature", "geometry": {"type": "Point", "coordinates": [121.532715, 25.067392]}, "properties": {"type": "cycle", "date": "1070822", "time": "03~05", "address": "臺北市中山區德惠街193巷1 - 30號"}}, {"type": "Feature", "geometry": {"type": "Point", "coordinates": [121.5164, 25.043778]}, "properties": {"type": "cycle", "date": "1070822", "time": "09~11", "address": "臺北市中正區南陽街23巷"}}, {"type": "Feature", "geometry": {"type": "Point", "coordinates": [121.509961, 25.119921]}, "properties": {"type": "cycle", "date": "1070823", "time": "12~14", "address": "臺北市北投區西安街二段石牌路口"}}, {"type": "Feature", "geometry": {"type": "Point", "coordinates": [121.498839, 25.025673]}, "properties": {"type": "cycle", "date": "1070823", "time": "12~14", "address": "臺北市萬華區民和街55巷1 - 30號"}}, {"type": "Feature", "geometry": {"type": "Point", "coordinates": [121.533628, 25.064251]}, "properties": {"type": "cycle", "date": "1070824", "time": "06~08", "address": "臺北市中山區中山北路與市民大道"}}, {"type": "Feature", "geometry": {"type": "Point", "coordinates": [121.531463, 25.02435]}, "properties": {"type": "cycle", "date": "1070824", "time": "09~11", "address": "臺北市大安區龍坡里21鄰泰順街31 - 60號"}}, {"type": "Feature", "geometry": {"type": "Point", "coordinates": [121.566232, 25.001125]}, "properties": {"type": "cycle", "date": "1070824", "time": "06~8", "address": "臺北市文山區萬美街1段91 - 120號"}}, {"type": "Feature", "geometry": {"type": "Point", "coordinates": [121.525848, 25.095131]}, "properties": {"type": "cycle", "date": "1070824", "time": "18-20", "address": "臺北市士林區舊佳里中正路241 - 270號"}}, {"type": "Feature", "geometry": {"type": "Point", "coordinates": [121.569813, 25.023312]}, "properties": {"type": "cycle", "date": "1070824", "time": "12~14", "address": "臺北市信義區吳興街511 - 540號"}}, {"type": "Feature", "geometry": {"type": "Point", "coordinates": [121.52459, 25.036139]}, "properties": {"type": "cycle", "date": "1070825", "time": "21-23", "address": "臺北市中正區杭州南路一段143巷與杭州南路口附近"}}, {"type": "Feature", "geometry": {"type": "Point", "coordinates": [121.565425, 25.082345]}, "properties": {"type": "cycle", "date": "1070825", "time": "12~14", "address": "臺北市內湖區基湖路與內湖路一段"}}, {"type": "Feature", "geometry": {"type": "Point", "coordinates": [121.553064, 25.024107]}, "properties": {"type": "cycle", "date": "1070825", "time": "09~11", "address": "臺北市信義區和平東路三段151 - 180號"}}, {"type": "Feature", "geometry": {"type": "Point", "coordinates": [121.502546, 25.03564]}, "properties": {"type": "cycle", "date": "1070825", "time": "21-23", "address": "臺北市萬華區和平西路3段55巷"}}, {"type": "Feature", "geometry": {"type": "Point", "coordinates": [121.557283, 25.030632]},